[
  {
    "iata": null,
    "icao": null,
    "name": "[Duplicate] Western Sydney International Airport",
    "city": "Sydney",
    "country": "AU",
    "continent": "OC",
    "lat": -33.888056,
    "lng": 150.714722,
    "elevation_ft": 262,
    "type": "airport"
  },
  {
    "iata": "AAA",
    "icao": "NTGA",
    "name": "Anaa Airport",
    "city": "Anaa",
    "country": "PF",
    "continent": "OC",
    "lat": -17.3526,
    "lng": -145.509995,
    "elevation_ft": 10,
    "type": "airport"
  },
  {
    "iata": "AAC",
    "icao": "HEAR",
    "name": "El Arish International Airport",
    "city": "El Arish",
    "country": "EG",
    "continent": "AS",
    "lat": 31.055324,
    "lng": 33.827964,
    "elevation_ft": 118,
    "type": "airport"
  },
  {
    "iata": "AAE",
    "icao": "DABB",
    "name": "Annaba Rabah Bitat Airport",
    "city": "Annaba",
    "country": "DZ",
    "continent": "AF",
    "lat": 36.826781,
    "lng": 7.81334,
    "elevation_ft": 16,
    "type": "airport"
  },
  {
    "iata": "AAL",
    "icao": "EKYT",
    "name": "Aalborg Airport",
    "city": "Aalborg",
    "country": "DK",
    "continent": "EU",
    "lat": 57.094763,
    "lng": 9.84993,
    "elevation_ft": 10,
    "type": "airport"
  },
  {
    "iata": "AAN",
    "icao": "OMAL",
    "name": "Al Ain International Airport",
    "city": "Al Ain",
    "country": "AE",
    "continent": "AS",
    "lat": 24.2617,
    "lng": 55.6092,
    "elevation_ft": 869,
    "type": "airport"
  },
  {
    "iata": "AAP",
    "icao": "WALS",
    "name": "Aji Pangeran Tumenggung Pranoto International Airport",
    "city": "Samarinda",
    "country": "ID",
    "continent": "AS",
    "lat": -0.374478,
    "lng": 117.250128,
    "elevation_ft": 82,
    "type": "airport"
  },
  {
    "iata": "AAQ",
    "icao": "URKA",
    "name": "Anapa Vityazevo Airport",
    "city": "Krasnyi Kurgan",
    "country": "RU",
    "continent": "EU",
    "lat": 45.002102,
    "lng": 37.347301,
    "elevation_ft": 174,
    "type": "airport"
  },
  {
    "iata": "AAR",
    "icao": "EKAH",
    "name": "Aarhus Airport",
    "city": "Aarhus",
    "country": "DK",
    "continent": "EU",
    "lat": 56.303331,
    "lng": 10.618286,
    "elevation_ft": 82,
    "type": "airport"
  },
  {
    "iata": "AAT",
    "icao": "ZWAT",
    "name": "Altay Xuedu Airport",
    "city": "Altay",
    "country": "CN",
    "continent": "AS",
    "lat": 47.749886,
    "lng": 88.085808,
    "elevation_ft": 2460,
    "type": "airport"
  },
  {
    "iata": "AAX",
    "icao": "SBAX",
    "name": "Romeu Zema Airport",
    "city": "Araxá",
    "country": "BR",
    "continent": "SA",
    "lat": -19.5632,
    "lng": -46.9604,
    "elevation_ft": 3276,
    "type": "airport"
  },
  {
    "iata": "AAY",
    "icao": "OYGD",
    "name": "Al Ghaydah International Airport",
    "city": "Al Ghaydah",
    "country": "YE",
    "continent": "AS",
    "lat": 16.193341,
    "lng": 52.174186,
    "elevation_ft": 134,
    "type": "airport"
  },
  {
    "iata": "ABA",
    "icao": "UNAA",
    "name": "Abakan International Airport",
    "city": "Abakan",
    "country": "RU",
    "continent": "AS",
    "lat": 53.740002,
    "lng": 91.385002,
    "elevation_ft": 831,
    "type": "airport"
  },
  {
    "iata": "ABB",
    "icao": "DNAS",
    "name": "Asaba International Airport",
    "city": "Asaba",
    "country": "NG",
    "continent": "AF",
    "lat": 6.204167,
    "lng": 6.665278,
    "elevation_ft": 305,
    "type": "airport"
  },
  {
    "iata": "ABD",
    "icao": "OIAA",
    "name": "Abadan Ayatollah Jami International Airport",
    "city": "Abadan",
    "country": "IR",
    "continent": "AS",
    "lat": 30.367887,
    "lng": 48.230075,
    "elevation_ft": 10,
    "type": "airport"
  },
  {
    "iata": "ABE",
    "icao": "KABE",
    "name": "Lehigh Valley International Airport",
    "city": "Allentown/Bethlehem",
    "country": "US",
    "continent": "NA",
    "lat": 40.651773,
    "lng": -75.442797,
    "elevation_ft": 393,
    "type": "airport"
  },
  {
    "iata": "ABI",
    "icao": "KABI",
    "name": "Abilene Regional Airport",
    "city": "Abilene",
    "country": "US",
    "continent": "NA",
    "lat": 32.4113006592,
    "lng": -99.68190002440001,
    "elevation_ft": 1791,
    "type": "airport"
  },
  {
    "iata": "ABJ",
    "icao": "DIAP",
    "name": "Félix-Houphouët-Boigny International Airport",
    "city": "Abidjan",
    "country": "CI",
    "continent": "AF",
    "lat": 5.26139,
    "lng": -3.92629,
    "elevation_ft": 21,
    "type": "airport"
  },
  {
    "iata": "ABK",
    "icao": "HAKD",
    "name": "Kebri Dahar Airport",
    "city": "Kebri Dahar",
    "country": "ET",
    "continent": "AF",
    "lat": 6.732577,
    "lng": 44.241339,
    "elevation_ft": 1800,
    "type": "airport"
  },
  {
    "iata": "ABL",
    "icao": "PAFM",
    "name": "Ambler Airport",
    "city": "Ambler",
    "country": "US",
    "continent": "NA",
    "lat": 67.105529,
    "lng": -157.855339,
    "elevation_ft": 334,
    "type": "airport"
  },
  {
    "iata": "ABQ",
    "icao": "KABQ",
    "name": "Albuquerque International Sunport",
    "city": "Albuquerque",
    "country": "US",
    "continent": "NA",
    "lat": 35.039976,
    "lng": -106.608925,
    "elevation_ft": 5355,
    "type": "airport"
  },
  {
    "iata": "ABR",
    "icao": "KABR",
    "name": "Aberdeen Regional Airport",
    "city": "Aberdeen",
    "country": "US",
    "continent": "NA",
    "lat": 45.449100494384766,
    "lng": -98.42179870605469,
    "elevation_ft": 1302,
    "type": "airport"
  },
  {
    "iata": "ABS",
    "icao": "HEBL",
    "name": "Abu Simbel Airport",
    "city": "Abu Simbel",
    "country": "EG",
    "continent": "AF",
    "lat": 22.375924,
    "lng": 31.611734,
    "elevation_ft": 614,
    "type": "airport"
  },
  {
    "iata": "ABT",
    "icao": "OEBA",
    "name": "King Saud Bin Abdulaziz (Al Baha) Airport",
    "city": "Al-Baha",
    "country": "SA",
    "continent": "AS",
    "lat": 20.298506,
    "lng": 41.636153,
    "elevation_ft": 5486,
    "type": "airport"
  },
  {
    "iata": "ABV",
    "icao": "DNAA",
    "name": "Nnamdi Azikiwe International Airport",
    "city": "Abuja",
    "country": "NG",
    "continent": "AF",
    "lat": 9.00679,
    "lng": 7.26317,
    "elevation_ft": 1123,
    "type": "airport"
  },
  {
    "iata": "ABX",
    "icao": "YMAY",
    "name": "Albury Airport",
    "city": "East Albury",
    "country": "AU",
    "continent": "OC",
    "lat": -36.066758,
    "lng": 146.959148,
    "elevation_ft": 539,
    "type": "airport"
  },
  {
    "iata": "ABY",
    "icao": "KABY",
    "name": "Southwest Georgia Regional Airport",
    "city": "Albany",
    "country": "US",
    "continent": "NA",
    "lat": 31.532946,
    "lng": -84.196215,
    "elevation_ft": 197,
    "type": "airport"
  },
  {
    "iata": "ABZ",
    "icao": "EGPD",
    "name": "Aberdeen International Airport",
    "city": "Aberdeen",
    "country": "GB",
    "continent": "EU",
    "lat": 57.2019,
    "lng": -2.19778,
    "elevation_ft": 215,
    "type": "airport"
  },
  {
    "iata": "ACA",
    "icao": "MMAA",
    "name": "General Juan N. Álvarez International Airport",
    "city": "Acapulco",
    "country": "MX",
    "continent": "NA",
    "lat": 16.757126,
    "lng": -99.753113,
    "elevation_ft": 16,
    "type": "airport"
  },
  {
    "iata": "ACC",
    "icao": "DGAA",
    "name": "Kotoka International Airport",
    "city": "Accra",
    "country": "GH",
    "continent": "AF",
    "lat": 5.605189800262451,
    "lng": -0.16678600013256073,
    "elevation_ft": 205,
    "type": "airport"
  },
  {
    "iata": "ACE",
    "icao": "GCRR",
    "name": "César Manrique-Lanzarote Airport",
    "city": "San Bartolomé",
    "country": "ES",
    "continent": "AF",
    "lat": 28.945499,
    "lng": -13.6052,
    "elevation_ft": 46,
    "type": "airport"
  },
  {
    "iata": "ACH",
    "icao": "LSZR",
    "name": "Sankt Gallen Altenrhein Airport",
    "city": "St. Gallen",
    "country": "CH",
    "continent": "EU",
    "lat": 47.485001,
    "lng": 9.56077,
    "elevation_ft": 1306,
    "type": "airport"
  },
  {
    "iata": "ACI",
    "icao": "EGJA",
    "name": "Alderney Airport",
    "city": "Saint Anne",
    "country": "GG",
    "continent": "EU",
    "lat": 49.706104,
    "lng": -2.21472,
    "elevation_ft": 290,
    "type": "airport"
  },
  {
    "iata": "ACK",
    "icao": "KACK",
    "name": "Nantucket Memorial Airport",
    "city": "Nantucket",
    "country": "US",
    "continent": "NA",
    "lat": 41.25310135,
    "lng": -70.06020355,
    "elevation_ft": 47,
    "type": "airport"
  },
  {
    "iata": "ACT",
    "icao": "KACT",
    "name": "Waco Regional Airport",
    "city": "Waco",
    "country": "US",
    "continent": "NA",
    "lat": 31.611299514770508,
    "lng": -97.23049926757812,
    "elevation_ft": 516,
    "type": "airport"
  },
  {
    "iata": "ACV",
    "icao": "KACV",
    "name": "California Redwood Coast-Humboldt County Airport",
    "city": "Arcata/Eureka",
    "country": "US",
    "continent": "NA",
    "lat": 40.978101,
    "lng": -124.109,
    "elevation_ft": 221,
    "type": "airport"
  },
  {
    "iata": "ACX",
    "icao": "ZUYI",
    "name": "Xingyi Wanfenglin Airport",
    "city": "Xingyi",
    "country": "CN",
    "continent": "AS",
    "lat": 25.083423,
    "lng": 104.960804,
    "elevation_ft": 4150,
    "type": "airport"
  },
  {
    "iata": "ACY",
    "icao": "KACY",
    "name": "Atlantic City International Airport",
    "city": "Atlantic City",
    "country": "US",
    "continent": "NA",
    "lat": 39.456201,
    "lng": -74.577511,
    "elevation_ft": 75,
    "type": "airport"
  },
  {
    "iata": "ADA",
    "icao": "LTAF",
    "name": "Adana Şakirpaşa Airport",
    "city": "Seyhan",
    "country": "TR",
    "continent": "AS",
    "lat": 36.982201,
    "lng": 35.280399,
    "elevation_ft": 65,
    "type": "airport"
  },
  {
    "iata": "ADB",
    "icao": "LTBJ",
    "name": "Adnan Menderes International Airport",
    "city": "Gaziemir",
    "country": "TR",
    "continent": "AS",
    "lat": 38.2924,
    "lng": 27.157,
    "elevation_ft": 412,
    "type": "airport"
  },
  {
    "iata": "ADD",
    "icao": "HAAB",
    "name": "Addis Ababa Bole International Airport",
    "city": "Addis Ababa",
    "country": "ET",
    "continent": "AF",
    "lat": 8.97789,
    "lng": 38.799301,
    "elevation_ft": 7630,
    "type": "airport"
  },
  {
    "iata": "ADE",
    "icao": "OYAA",
    "name": "Aden International Airport",
    "city": "Aden",
    "country": "YE",
    "continent": "AS",
    "lat": 12.829564,
    "lng": 45.029976,
    "elevation_ft": 7,
    "type": "airport"
  },
  {
    "iata": "ADF",
    "icao": "LTCP",
    "name": "Adıyaman Airport",
    "city": "Adıyaman",
    "country": "TR",
    "continent": "AS",
    "lat": 37.7314,
    "lng": 38.468899,
    "elevation_ft": 2216,
    "type": "airport"
  },
  {
    "iata": "ADJ",
    "icao": "OJAM",
    "name": "Marka International (Amman Civil) Airport",
    "city": "Amman",
    "country": "JO",
    "continent": "AS",
    "lat": 31.9727,
    "lng": 35.9916,
    "elevation_ft": 2555,
    "type": "airport"
  },
  {
    "iata": "ADK",
    "icao": "PADK",
    "name": "Adak Airport",
    "city": "Adak",
    "country": "US",
    "continent": "NA",
    "lat": 51.883564,
    "lng": -176.642783,
    "elevation_ft": 18,
    "type": "airport"
  },
  {
    "iata": "ADL",
    "icao": "YPAD",
    "name": "Adelaide International Airport",
    "city": "Adelaide",
    "country": "AU",
    "continent": "OC",
    "lat": -34.947512,
    "lng": 138.533393,
    "elevation_ft": 20,
    "type": "airport"
  },
  {
    "iata": "ADQ",
    "icao": "PADQ",
    "name": "Kodiak Airport",
    "city": "Kodiak",
    "country": "US",
    "continent": "NA",
    "lat": 57.75,
    "lng": -152.4940033,
    "elevation_ft": 78,
    "type": "airport"
  },
  {
    "iata": "ADU",
    "icao": "OITL",
    "name": "Ardabil Airport",
    "city": "Ardabil",
    "country": "IR",
    "continent": "AS",
    "lat": 38.3256988525,
    "lng": 48.4244003296,
    "elevation_ft": 4315,
    "type": "airport"
  },
  {
    "iata": "ADZ",
    "icao": "SKSP",
    "name": "Gustavo Rojas Pinilla International Airport",
    "city": "San Andrés",
    "country": "CO",
    "continent": "NA",
    "lat": 12.5836,
    "lng": -81.7112,
    "elevation_ft": 19,
    "type": "airport"
  },
  {
    "iata": "AEB",
    "icao": "ZGBS",
    "name": "Baise (Bose) Bama Airport",
    "city": "Baise (Tianyang)",
    "country": "CN",
    "continent": "AS",
    "lat": 23.7206,
    "lng": 106.959999,
    "elevation_ft": 490,
    "type": "airport"
  },
  {
    "iata": "AEH",
    "icao": "FTTC",
    "name": "Abeche Airport",
    "city": "Abeche",
    "country": "TD",
    "continent": "AF",
    "lat": 13.847,
    "lng": 20.844299,
    "elevation_ft": 1788,
    "type": "airport"
  },
  {
    "iata": "AEP",
    "icao": "SABE",
    "name": "Aeroparque Jorge Newbery",
    "city": "Buenos Aires",
    "country": "AR",
    "continent": "SA",
    "lat": -34.559419,
    "lng": -58.415536,
    "elevation_ft": 18,
    "type": "airport"
  },
  {
    "iata": "AER",
    "icao": "URSS",
    "name": "Sochi International Airport",
    "city": "Sochi",
    "country": "RU",
    "continent": "EU",
    "lat": 43.449902,
    "lng": 39.9566,
    "elevation_ft": 89,
    "type": "airport"
  },
  {
    "iata": null,
    "icao": null,
    "name": "Aeroestación Yabotí",
    "city": "El Soberbio",
    "country": "AR",
    "continent": "SA",
    "lat": -27.180308,
    "lng": -54.107368,
    "elevation_ft": 400,
    "type": "airport"
  },
  {
    "iata": "AES",
    "icao": "ENAL",
    "name": "Ålesund Airport",
    "city": "Ålesund",
    "country": "NO",
    "continent": "EU",
    "lat": 62.560443,
    "lng": 6.110845,
    "elevation_ft": 69,
    "type": "airport"
  },
  {
    "iata": "AEU",
    "icao": "OIBA",
    "name": "Abu Musa Island Airport",
    "city": "Abu Musa",
    "country": "IR",
    "continent": "AS",
    "lat": 25.8757,
    "lng": 55.033001,
    "elevation_ft": 23,
    "type": "airport"
  },
  {
    "iata": "AEX",
    "icao": "KAEX",
    "name": "Alexandria International Airport",
    "city": "Alexandria",
    "country": "US",
    "continent": "NA",
    "lat": 31.325828,
    "lng": -92.546702,
    "elevation_ft": 89,
    "type": "airport"
  },
  {
    "iata": "AEY",
    "icao": "BIAR",
    "name": "Akureyri International Airport",
    "city": "Akureyri",
    "country": "IS",
    "continent": "EU",
    "lat": 65.656573,
    "lng": -18.072018,
    "elevation_ft": 6,
    "type": "airport"
  },
  {
    "iata": "AFA",
    "icao": "SAMR",
    "name": "Suboficial Ay Santiago Germano Airport",
    "city": "San Rafael",
    "country": "AR",
    "continent": "SA",
    "lat": -34.588299,
    "lng": -68.4039,
    "elevation_ft": 2470,
    "type": "airport"
  },
  {
    "iata": "AFL",
    "icao": "SBAT",
    "name": "Piloto Osvaldo Marques Dias Airport",
    "city": "Alta Floresta",
    "country": "BR",
    "continent": "SA",
    "lat": -9.866389,
    "lng": -56.106298,
    "elevation_ft": 948,
    "type": "airport"
  },
  {
    "iata": "AFZ",
    "icao": "OIMS",
    "name": "Sabzevar National Airport",
    "city": "Sabzevar",
    "country": "IR",
    "continent": "AS",
    "lat": 36.16809844970703,
    "lng": 57.59519958496094,
    "elevation_ft": 3010,
    "type": "airport"
  },
  {
    "iata": "AGA",
    "icao": "GMAD",
    "name": "Al Massira Airport",
    "city": "Agadir (Temsia)",
    "country": "MA",
    "continent": "AF",
    "lat": 30.322478,
    "lng": -9.412003,
    "elevation_ft": 250,
    "type": "airport"
  },
  {
    "iata": "AGH",
    "icao": "ESTA",
    "name": "Ängelholm-Helsingborg Airport",
    "city": "Ängelholm",
    "country": "SE",
    "continent": "EU",
    "lat": 56.29610061645508,
    "lng": 12.847100257873535,
    "elevation_ft": 68,
    "type": "airport"
  },
  {
    "iata": "AGP",
    "icao": "LEMG",
    "name": "Málaga-Costa del Sol Airport",
    "city": "Málaga",
    "country": "ES",
    "continent": "EU",
    "lat": 36.6749,
    "lng": -4.49911,
    "elevation_ft": 53,
    "type": "airport"
  },
  {
    "iata": "AGR",
    "icao": "VIAG",
    "name": "Agra Airport / Agra Air Force Station",
    "city": "Agra",
    "country": "IN",
    "continent": "AS",
    "lat": 27.157975,
    "lng": 77.961025,
    "elevation_ft": 551,
    "type": "airport"
  },
  {
    "iata": "AGS",
    "icao": "KAGS",
    "name": "Augusta Regional At Bush Field",
    "city": "Augusta",
    "country": "US",
    "continent": "NA",
    "lat": 33.3699,
    "lng": -81.9645,
    "elevation_ft": 144,
    "type": "airport"
  },
  {
    "iata": "AGT",
    "icao": "SGES",
    "name": "Guaraní International Airport",
    "city": "Ciudad del Este",
    "country": "PY",
    "continent": "SA",
    "lat": -25.457186,
    "lng": -54.839544,
    "elevation_ft": 846,
    "type": "airport"
  },
  {
    "iata": "AGU",
    "icao": "MMAS",
    "name": "Aguascalientes International Airport",
    "city": "Aguascalientes",
    "country": "MX",
    "continent": "NA",
    "lat": 21.699589,
    "lng": -102.318372,
    "elevation_ft": 6112,
    "type": "airport"
  },
  {
    "iata": "AGX",
    "icao": "VOAT",
    "name": "Agatti Airport",
    "city": "Agatti",
    "country": "IN",
    "continent": "AS",
    "lat": 10.8237,
    "lng": 72.176003,
    "elevation_ft": 14,
    "type": "airport"
  },
  {
    "iata": "AHA",
    "icao": null,
    "name": "Maa Mahamaya Airport",
    "city": "Ambikapur",
    "country": "IN",
    "continent": "AS",
    "lat": 22.98753,
    "lng": 83.19612,
    "elevation_ft": 1930,
    "type": "airport"
  },
  {
    "iata": "AHB",
    "icao": "OEAB",
    "name": "Abha International Airport",
    "city": "Abha",
    "country": "SA",
    "continent": "AS",
    "lat": 18.2404,
    "lng": 42.656601,
    "elevation_ft": 6858,
    "type": "airport"
  },
  {
    "iata": "AHE",
    "icao": "NTHE",
    "name": "Ahe Airport",
    "city": "Ahe Atoll",
    "country": "PF",
    "continent": "OC",
    "lat": -14.428099632263184,
    "lng": -146.2570037841797,
    "elevation_ft": 11,
    "type": "airport"
  },
  {
    "iata": "AHO",
    "icao": "LIEA",
    "name": "Alghero-Fertilia Airport",
    "city": "Alghero",
    "country": "IT",
    "continent": "EU",
    "lat": 40.632099,
    "lng": 8.29077,
    "elevation_ft": 87,
    "type": "airport"
  },
  {
    "iata": "AIA",
    "icao": "KAIA",
    "name": "Alliance Municipal Airport",
    "city": "Alliance",
    "country": "US",
    "continent": "NA",
    "lat": 42.052543,
    "lng": -102.803965,
    "elevation_ft": 3931,
    "type": "airport"
  },
  {
    "iata": "AIN",
    "icao": "PAWI",
    "name": "Wainwright Airport",
    "city": "Wainwright",
    "country": "US",
    "continent": "NA",
    "lat": 70.638,
    "lng": -159.994995,
    "elevation_ft": 41,
    "type": "airport"
  },
  {
    "iata": "AJA",
    "icao": "LFKJ",
    "name": "Ajaccio Napoléon Bonaparte airport",
    "city": "Ajaccio",
    "country": "FR",
    "continent": "EU",
    "lat": 41.923599,
    "lng": 8.80292,
    "elevation_ft": 18,
    "type": "airport"
  },
  {
    "iata": "AJF",
    "icao": "OESK",
    "name": "Al-Jawf International Airport",
    "city": "Al-Jawf",
    "country": "SA",
    "continent": "AS",
    "lat": 29.783301,
    "lng": 40.100905,
    "elevation_ft": 2261,
    "type": "airport"
  },
  {
    "iata": "AJI",
    "icao": "LTCO",
    "name": "Ağrı Airport",
    "city": "Ağrı",
    "country": "TR",
    "continent": "AS",
    "lat": 39.655642,
    "lng": 43.025742,
    "elevation_ft": 5462,
    "type": "airport"
  },
  {
    "iata": "AJL",
    "icao": "VELP",
    "name": "Lengpui Airport",
    "city": "Aizawl (Lengpui)",
    "country": "IN",
    "continent": "AS",
    "lat": 23.840599,
    "lng": 92.619698,
    "elevation_ft": 1398,
    "type": "airport"
  },
  {
    "iata": "AJN",
    "icao": "FMCV",
    "name": "Ouani Airport",
    "city": "Ouani",
    "country": "KM",
    "continent": "AF",
    "lat": -12.131047,
    "lng": 44.430044,
    "elevation_ft": 62,
    "type": "airport"
  },
  {
    "iata": "AJR",
    "icao": "ESNX",
    "name": "Arvidsjaur Airport",
    "city": "Arvidsjaur",
    "country": "SE",
    "continent": "EU",
    "lat": 65.59030151367188,
    "lng": 19.28190040588379,
    "elevation_ft": 1245,
    "type": "airport"
  },
  {
    "iata": "AJU",
    "icao": "SBAR",
    "name": "Aracaju - Santa Maria Airport",
    "city": "Aracaju",
    "country": "BR",
    "continent": "SA",
    "lat": -10.98394,
    "lng": -37.072873,
    "elevation_ft": 23,
    "type": "airport"
  },
  {
    "iata": "AKF",
    "icao": "HLKF",
    "name": "Kufra Airport",
    "city": "Kufra",
    "country": "LY",
    "continent": "AF",
    "lat": 24.178699493408203,
    "lng": 23.31399917602539,
    "elevation_ft": 1367,
    "type": "airport"
  },
  {
    "iata": "AKJ",
    "icao": "RJEC",
    "name": "Asahikawa Airport",
    "city": "Higashikagura",
    "country": "JP",
    "continent": "AS",
    "lat": 43.670799,
    "lng": 142.447006,
    "elevation_ft": 721,
    "type": "airport"
  },
  {
    "iata": "AKL",
    "icao": "NZAA",
    "name": "Auckland International Airport",
    "city": "Auckland",
    "country": "NZ",
    "continent": "OC",
    "lat": -37.01199,
    "lng": 174.786331,
    "elevation_ft": 23,
    "type": "airport"
  },
  {
    "iata": "AKN",
    "icao": "PAKN",
    "name": "King Salmon Airport",
    "city": "King Salmon",
    "country": "US",
    "continent": "NA",
    "lat": 58.677845,
    "lng": -156.651965,
    "elevation_ft": 73,
    "type": "airport"
  },
  {
    "iata": "AKP",
    "icao": "PAKP",
    "name": "Anaktuvuk Pass Airport",
    "city": "Anaktuvuk Pass",
    "country": "US",
    "continent": "NA",
    "lat": 68.133598,
    "lng": -151.742996,
    "elevation_ft": 2102,
    "type": "airport"
  },
  {
    "iata": "AKR",
    "icao": "DNAK",
    "name": "Akure Airport",
    "city": "Akure",
    "country": "NG",
    "continent": "AF",
    "lat": 7.246739864349365,
    "lng": 5.3010101318359375,
    "elevation_ft": 1100,
    "type": "airport"
  },
  {
    "iata": "AKU",
    "icao": "ZWAK",
    "name": "Aksu Hongqipo Airport",
    "city": "Aksu (Onsu)",
    "country": "CN",
    "continent": "AS",
    "lat": 41.262501,
    "lng": 80.291702,
    "elevation_ft": 3816,
    "type": "airport"
  },
  {
    "iata": "AKX",
    "icao": "UATT",
    "name": "Aktobe International Airport",
    "city": "Aktobe",
    "country": "KZ",
    "continent": "AS",
    "lat": 50.248116,
    "lng": 57.204144,
    "elevation_ft": 738,
    "type": "airport"
  },
  {
    "iata": "AKY",
    "icao": "VYSW",
    "name": "Sittwe Airport",
    "city": "Sittwe",
    "country": "MM",
    "continent": "AS",
    "lat": 20.133165,
    "lng": 92.870693,
    "elevation_ft": 27,
    "type": "airport"
  },
  {
    "iata": "ALA",
    "icao": "UAAA",
    "name": "Almaty International Airport",
    "city": "Almaty",
    "country": "KZ",
    "continent": "AS",
    "lat": 43.354267,
    "lng": 77.042828,
    "elevation_ft": 2234,
    "type": "airport"
  },
  {
    "iata": "ALB",
    "icao": "KALB",
    "name": "Albany International Airport",
    "city": "Albany",
    "country": "US",
    "continent": "NA",
    "lat": 42.748299,
    "lng": -73.801697,
    "elevation_ft": 285,
    "type": "airport"
  },
  {
    "iata": "ALC",
    "icao": "LEAL",
    "name": "Alicante-Elche Miguel Hernández Airport",
    "city": "Alicante",
    "country": "ES",
    "continent": "EU",
    "lat": 38.2822,
    "lng": -0.558156,
    "elevation_ft": 142,
    "type": "airport"
  },
  {
    "iata": "ALF",
    "icao": "ENAT",
    "name": "Alta Airport",
    "city": "Alta",
    "country": "NO",
    "continent": "EU",
    "lat": 69.976097,
    "lng": 23.3717,
    "elevation_ft": 9,
    "type": "airport"
  },
  {
    "iata": "ALG",
    "icao": "DAAG",
    "name": "Houari Boumediene Airport",
    "city": "Algiers",
    "country": "DZ",
    "continent": "AF",
    "lat": 36.693886,
    "lng": 3.214531,
    "elevation_ft": 82,
    "type": "airport"
  },
  {
    "iata": "ALH",
    "icao": "YABA",
    "name": "Albany Airport",
    "city": "Albany",
    "country": "AU",
    "continent": "OC",
    "lat": -34.943333,
    "lng": 117.808889,
    "elevation_ft": 233,
    "type": "airport"
  },
  {
    "iata": "ALO",
    "icao": "KALO",
    "name": "Waterloo Regional Airport",
    "city": "Waterloo",
    "country": "US",
    "continent": "NA",
    "lat": 42.557098388671875,
    "lng": -92.40029907226562,
    "elevation_ft": 873,
    "type": "airport"
  },
  {
    "iata": "ALP",
    "icao": "OSAP",
    "name": "Aleppo International Airport",
    "city": "Aleppo",
    "country": "SY",
    "continent": "AS",
    "lat": 36.181262,
    "lng": 37.226869,
    "elevation_ft": 1276,
    "type": "airport"
  },
  {
    "iata": "ALS",
    "icao": "KALS",
    "name": "San Luis Valley Regional Airport/Bergman Field",
    "city": "Alamosa",
    "country": "US",
    "continent": "NA",
    "lat": 37.434898,
    "lng": -105.866997,
    "elevation_ft": 7539,
    "type": "airport"
  },
  {
    "iata": "ALW",
    "icao": "KALW",
    "name": "Walla Walla Regional Airport",
    "city": "Walla Walla",
    "country": "US",
    "continent": "NA",
    "lat": 46.09489822,
    "lng": -118.288002,
    "elevation_ft": 1194,
    "type": "airport"
  },
  {
    "iata": "AMA",
    "icao": "KAMA",
    "name": "Rick Husband Amarillo International Airport",
    "city": "Amarillo",
    "country": "US",
    "continent": "NA",
    "lat": 35.217857,
    "lng": -101.706444,
    "elevation_ft": 3607,
    "type": "airport"
  },
  {
    "iata": "AMD",
    "icao": "VAAH",
    "name": "Sardar Vallabh Patel International Airport",
    "city": "Ahmedabad",
    "country": "IN",
    "continent": "AS",
    "lat": 23.0772,
    "lng": 72.634697,
    "elevation_ft": 189,
    "type": "airport"
  },
  {
    "iata": "AMH",
    "icao": "HAAM",
    "name": "Arba Minch Airport",
    "city": "Arba Minch",
    "country": "ET",
    "continent": "AF",
    "lat": 6.03939,
    "lng": 37.5905,
    "elevation_ft": 3901,
    "type": "airport"
  },
  {
    "iata": "AMM",
    "icao": "OJAI",
    "name": "Queen Alia International Airport",
    "city": "Amman",
    "country": "JO",
    "continent": "AS",
    "lat": 31.7226009369,
    "lng": 35.9931983948,
    "elevation_ft": 2395,
    "type": "airport"
  },
  {
    "iata": "AMQ",
    "icao": "WAPP",
    "name": "Pattimura International Airport",
    "city": "Ambon",
    "country": "ID",
    "continent": "AS",
    "lat": -3.71026,
    "lng": 128.089005,
    "elevation_ft": 33,
    "type": "airport"
  },
  {
    "iata": "AMS",
    "icao": "EHAM",
    "name": "Amsterdam Airport Schiphol",
    "city": "Amsterdam",
    "country": "NL",
    "continent": "EU",
    "lat": 52.308601,
    "lng": 4.76389,
    "elevation_ft": -11,
    "type": "airport"
  },
  {
    "iata": "AMV",
    "icao": "ULDD",
    "name": "Amderma Airport",
    "city": "Amderma",
    "country": "RU",
    "continent": "AS",
    "lat": 69.76329803466797,
    "lng": 61.556400299072266,
    "elevation_ft": 13,
    "type": "airport"
  },
  {
    "iata": "ANC",
    "icao": "PANC",
    "name": "Ted Stevens Anchorage International Airport",
    "city": "Anchorage",
    "country": "US",
    "continent": "NA",
    "lat": 61.179004,
    "lng": -149.992561,
    "elevation_ft": 152,
    "type": "airport"
  },
  {
    "iata": "ANF",
    "icao": "SCFA",
    "name": "Andrés Sabella Gálvez International Airport",
    "city": "Antofagasta",
    "country": "CL",
    "continent": "SA",
    "lat": -23.445274,
    "lng": -70.445232,
    "elevation_ft": 455,
    "type": "airport"
  },
  {
    "iata": "ANI",
    "icao": "PANI",
    "name": "Aniak Airport",
    "city": "Aniak",
    "country": "US",
    "continent": "NA",
    "lat": 61.581600189208984,
    "lng": -159.54299926757812,
    "elevation_ft": 88,
    "type": "airport"
  },
  {
    "iata": "ANR",
    "icao": "EBAW",
    "name": "Antwerp International Airport (Deurne)",
    "city": "Antwerp",
    "country": "BE",
    "continent": "EU",
    "lat": 51.190667,
    "lng": 4.463153,
    "elevation_ft": 39,
    "type": "airport"
  },
  {
    "iata": "ANU",
    "icao": "TAPA",
    "name": "V. C. Bird International Airport",
    "city": "Osbourn",
    "country": "AG",
    "continent": "NA",
    "lat": 17.1367,
    "lng": -61.792702,
    "elevation_ft": 62,
    "type": "airport"
  },
  {
    "iata": "ANV",
    "icao": "PANV",
    "name": "Anvik Airport",
    "city": "Anvik",
    "country": "US",
    "continent": "NA",
    "lat": 62.646702,
    "lng": -160.190994,
    "elevation_ft": 291,
    "type": "airport"
  },
  {
    "iata": "ANX",
    "icao": "ENAN",
    "name": "Andøya Airport, Andenes",
    "city": "Andenes",
    "country": "NO",
    "continent": "EU",
    "lat": 69.295193,
    "lng": 16.139379,
    "elevation_ft": 43,
    "type": "airport"
  },
  {
    "iata": "AOE",
    "icao": "LTBY",
    "name": "Hasan Polatkan Airport",
    "city": "Eskişehir",
    "country": "TR",
    "continent": "AS",
    "lat": 39.811644,
    "lng": 30.519268,
    "elevation_ft": 2588,
    "type": "airport"
  },
  {
    "iata": "AOG",
    "icao": "ZYAS",
    "name": "Anshan Teng'ao Airport / Anshan Air Base",
    "city": "Anshan",
    "country": "CN",
    "continent": "AS",
    "lat": 41.105301,
    "lng": 122.853996,
    "elevation_ft": null,
    "type": "airport"
  },
  {
    "iata": "AOI",
    "icao": "LIPY",
    "name": "Marche Airport",
    "city": "Falconara Marittima (AN)",
    "country": "IT",
    "continent": "EU",
    "lat": 43.616299,
    "lng": 13.3623,
    "elevation_ft": 49,
    "type": "airport"
  },
  {
    "iata": "AOJ",
    "icao": "RJSA",
    "name": "Aomori Airport",
    "city": "Aomori",
    "country": "JP",
    "continent": "AS",
    "lat": 40.733777,
    "lng": 140.689477,
    "elevation_ft": 664,
    "type": "airport"
  },
  {
    "iata": "AOK",
    "icao": "LGKP",
    "name": "Karpathos Airport",
    "city": "Karpathos Island",
    "country": "GR",
    "continent": "EU",
    "lat": 35.421398,
    "lng": 27.146,
    "elevation_ft": 66,
    "type": "airport"
  },
  {
    "iata": "AOO",
    "icao": "KAOO",
    "name": "Altoona Blair County Airport",
    "city": "Altoona",
    "country": "US",
    "continent": "NA",
    "lat": 40.296398,
    "lng": -78.32,
    "elevation_ft": 1503,
    "type": "airport"
  },
  {
    "iata": "AOR",
    "icao": "WMKA",
    "name": "Sultan Abdul Halim Airport",
    "city": "Alor Satar",
    "country": "MY",
    "continent": "AS",
    "lat": 6.189670085906982,
    "lng": 100.39800262451172,
    "elevation_ft": 15,
    "type": "airport"
  },
  {
    "iata": "APL",
    "icao": "FQNP",
    "name": "Nampula Airport",
    "city": "Nampula",
    "country": "MZ",
    "continent": "AF",
    "lat": -15.1056,
    "lng": 39.281799,
    "elevation_ft": 1444,
    "type": "airport"
  },
  {
    "iata": "APN",
    "icao": "KAPN",
    "name": "Alpena County Regional Airport",
    "city": "Alpena",
    "country": "US",
    "continent": "NA",
    "lat": 45.0780983,
    "lng": -83.56030273,
    "elevation_ft": 690,
    "type": "airport"
  },
  {
    "iata": "APO",
    "icao": "SKLC",
    "name": "Antonio Roldán Betancur Airport",
    "city": "Carepa",
    "country": "CO",
    "continent": "SA",
    "lat": 7.81196,
    "lng": -76.7164,
    "elevation_ft": 46,
    "type": "airport"
  },
  {
    "iata": "APW",
    "icao": "NSFA",
    "name": "Faleolo International Airport",
    "city": "Apia",
    "country": "WS",
    "continent": "OC",
    "lat": -13.83,
    "lng": -172.007996,
    "elevation_ft": 58,
    "type": "airport"
  },
  {
    "iata": "AQA",
    "icao": "SBAQ",
    "name": "Araraquara Airport",
    "city": "Araraquara",
    "country": "BR",
    "continent": "SA",
    "lat": -21.812,
    "lng": -48.132999,
    "elevation_ft": 2334,
    "type": "airport"
  },
  {
    "iata": "AQG",
    "icao": "ZSAQ",
    "name": "Anqing Tianzhushan Airport / Anqing North Air Base",
    "city": "Anqing",
    "country": "CN",
    "continent": "AS",
    "lat": 30.582199,
    "lng": 117.050003,
    "elevation_ft": null,
    "type": "airport"
  },
  {
    "iata": "AQI",
    "icao": "OEPA",
    "name": "Qaisumah–Hafar Al-Batin International Airport",
    "city": "Qaisumah",
    "country": "SA",
    "continent": "AS",
    "lat": 28.335726,
    "lng": 46.127108,
    "elevation_ft": 1174,
    "type": "airport"
  },
  {
    "iata": "AQJ",
    "icao": "OJAQ",
    "name": "King Hussein International Airport",
    "city": "Aqaba",
    "country": "JO",
    "continent": "AS",
    "lat": 29.611601,
    "lng": 35.018101,
    "elevation_ft": 175,
    "type": "airport"
  },
  {
    "iata": "AQP",
    "icao": "SPQU",
    "name": "Rodríguez Ballón International Airport",
    "city": "Arequipa",
    "country": "PE",
    "continent": "SA",
    "lat": -16.340786,
    "lng": -71.569485,
    "elevation_ft": 8405,
    "type": "airport"
  },
  {
    "iata": "ARC",
    "icao": "PARC",
    "name": "Arctic Village Airport",
    "city": "Arctic Village",
    "country": "US",
    "continent": "NA",
    "lat": 68.1147,
    "lng": -145.578995,
    "elevation_ft": 2092,
    "type": "airport"
  },
  {
    "iata": "ARH",
    "icao": "ULAA",
    "name": "Talagi Airport",
    "city": "Archangelsk",
    "country": "RU",
    "continent": "EU",
    "lat": 64.60030364990234,
    "lng": 40.71670150756836,
    "elevation_ft": 62,
    "type": "airport"
  },
  {
    "iata": "ARI",
    "icao": "SCAR",
    "name": "Chacalluta International Airport",
    "city": "Arica",
    "country": "CL",
    "continent": "SA",
    "lat": -18.348499,
    "lng": -70.338699,
    "elevation_ft": 167,
    "type": "airport"
  },
  {
    "iata": "ARK",
    "icao": "HTAR",
    "name": "Arusha Airport",
    "city": "Arusha",
    "country": "TZ",
    "continent": "AF",
    "lat": -3.3677899837493896,
    "lng": 36.63330078125,
    "elevation_ft": 4550,
    "type": "airport"
  },
  {
    "iata": "ARM",
    "icao": "YARM",
    "name": "Armidale Airport",
    "city": "Armidale",
    "country": "AU",
    "continent": "OC",
    "lat": -30.528099060099997,
    "lng": 151.617004395,
    "elevation_ft": 3556,
    "type": "airport"
  },
  {
    "iata": "ARN",
    "icao": "ESSA",
    "name": "Stockholm-Arlanda Airport",
    "city": "Stockholm",
    "country": "SE",
    "continent": "EU",
    "lat": 59.64849,
    "lng": 17.928829,
    "elevation_ft": 137,
    "type": "airport"
  },
  {
    "iata": "ART",
    "icao": "KART",
    "name": "Watertown International Airport",
    "city": "Watertown",
    "country": "US",
    "continent": "NA",
    "lat": 43.991901,
    "lng": -76.021698,
    "elevation_ft": 325,
    "type": "airport"
  },
  {
    "iata": "ARU",
    "icao": "SBAU",
    "name": "Araçatuba Airport",
    "city": "Araçatuba",
    "country": "BR",
    "continent": "SA",
    "lat": -21.141479,
    "lng": -50.424575,
    "elevation_ft": 1358,
    "type": "airport"
  },
  {
    "iata": "ARW",
    "icao": "LRAR",
    "name": "Arad International Airport",
    "city": "Arad",
    "country": "RO",
    "continent": "EU",
    "lat": 46.176136,
    "lng": 21.264322,
    "elevation_ft": 352,
    "type": "airport"
  },
  {
    "iata": "ASB",
    "icao": "UTAA",
    "name": "Ashgabat International Airport",
    "city": "Ashgabat",
    "country": "TM",
    "continent": "AS",
    "lat": 37.986801,
    "lng": 58.361,
    "elevation_ft": 692,
    "type": "airport"
  },
  {
    "iata": "ASD",
    "icao": "MYAF",
    "name": "Andros Town Airport",
    "city": "Andros Town",
    "country": "BS",
    "continent": "NA",
    "lat": 24.697901,
    "lng": -77.795601,
    "elevation_ft": 5,
    "type": "airport"
  },
  {
    "iata": "ASE",
    "icao": "KASE",
    "name": "Aspen-Pitkin County Airport (Sardy Field)",
    "city": "Aspen",
    "country": "US",
    "continent": "NA",
    "lat": 39.223202,
    "lng": -106.869003,
    "elevation_ft": 7820,
    "type": "airport"
  },
  {
    "iata": "ASF",
    "icao": "URWA",
    "name": "Astrakhan Narimanovo Boris M. Kustodiev International Airport",
    "city": "Astrakhan",
    "country": "RU",
    "continent": "AS",
    "lat": 46.282843,
    "lng": 48.010511,
    "elevation_ft": -65,
    "type": "airport"
  },
  {
    "iata": "ASI",
    "icao": "FHAW",
    "name": "RAF Ascension Island",
    "city": "Cat Hill",
    "country": "SH",
    "continent": "AF",
    "lat": -7.970179,
    "lng": -14.392744,
    "elevation_ft": 278,
    "type": "airport"
  },
  {
    "iata": "ASJ",
    "icao": "RJKA",
    "name": "Amami Airport",
    "city": "Amami",
    "country": "JP",
    "continent": "AS",
    "lat": 28.430599212646484,
    "lng": 129.71299743652344,
    "elevation_ft": 27,
    "type": "airport"
  },
  {
    "iata": "ASM",
    "icao": "HHAS",
    "name": "Asmara International Airport",
    "city": "Asmara",
    "country": "ER",
    "continent": "AF",
    "lat": 15.2919,
    "lng": 38.910702,
    "elevation_ft": 7661,
    "type": "airport"
  },
  {
    "iata": "ASO",
    "icao": "HASO",
    "name": "Asosa Airport",
    "city": "Asosa",
    "country": "ET",
    "continent": "AF",
    "lat": 10.018500328063965,
    "lng": 34.586299896240234,
    "elevation_ft": 5100,
    "type": "airport"
  },
  {
    "iata": "ASP",
    "icao": "YBAS",
    "name": "Alice Springs Airport",
    "city": "Alice Springs",
    "country": "AU",
    "continent": "OC",
    "lat": -23.806588,
    "lng": 133.903427,
    "elevation_ft": 1789,
    "type": "airport"
  },
  {
    "iata": "ASR",
    "icao": "LTAU",
    "name": "Kayseri Erkilet International Airport",
    "city": "Kayseri",
    "country": "TR",
    "continent": "AS",
    "lat": 38.770401,
    "lng": 35.495399,
    "elevation_ft": 3463,
    "type": "airport"
  },
  {
    "iata": "ASU",
    "icao": "SGAS",
    "name": "Silvio Pettirossi International Airport",
    "city": "Asunción",
    "country": "PY",
    "continent": "SA",
    "lat": -25.240156,
    "lng": -57.519227,
    "elevation_ft": 292,
    "type": "airport"
  },
  {
    "iata": "ASV",
    "icao": "HKAM",
    "name": "Amboseli Airport",
    "city": "Ol Tukai",
    "country": "KE",
    "continent": "AF",
    "lat": -2.644786,
    "lng": 37.252922,
    "elevation_ft": 3755,
    "type": "airport"
  },
  {
    "iata": "ASW",
    "icao": "HESN",
    "name": "Aswan International Airport",
    "city": "Aswan",
    "country": "EG",
    "continent": "AF",
    "lat": 23.961075,
    "lng": 32.820382,
    "elevation_ft": 650,
    "type": "airport"
  },
  {
    "iata": "ATC",
    "icao": "MYCA",
    "name": "Arthur's Town Airport",
    "city": "Arthur's Town",
    "country": "BS",
    "continent": "NA",
    "lat": 24.6294,
    "lng": -75.673797,
    "elevation_ft": 18,
    "type": "airport"
  },
  {
    "iata": "ATH",
    "icao": "LGAV",
    "name": "Athens Eleftherios Venizelos International Airport",
    "city": "Spata-Artemida",
    "country": "GR",
    "continent": "EU",
    "lat": 37.936401,
    "lng": 23.9445,
    "elevation_ft": 308,
    "type": "airport"
  },
  {
    "iata": "ATK",
    "icao": "PATQ",
    "name": "Atqasuk Edward Burnell Sr Memorial Airport",
    "city": "Atqasuk",
    "country": "US",
    "continent": "NA",
    "lat": 70.46704,
    "lng": -157.436013,
    "elevation_ft": 96,
    "type": "airport"
  },
  {
    "iata": "ATL",
    "icao": "KATL",
    "name": "Hartsfield Jackson Atlanta International Airport",
    "city": "Atlanta",
    "country": "US",
    "continent": "NA",
    "lat": 33.6367,
    "lng": -84.428101,
    "elevation_ft": 1026,
    "type": "airport"
  },
  {
    "iata": "ATM",
    "icao": "SBHT",
    "name": "Altamira Interstate Airport",
    "city": "Altamira",
    "country": "BR",
    "continent": "SA",
    "lat": -3.253144,
    "lng": -52.253938,
    "elevation_ft": 368,
    "type": "airport"
  },
  {
    "iata": "ATQ",
    "icao": "VIAR",
    "name": "Sri Guru Ram Das Ji International Airport",
    "city": "Amritsar",
    "country": "IN",
    "continent": "AS",
    "lat": 31.7096,
    "lng": 74.797302,
    "elevation_ft": 756,
    "type": "airport"
  },
  {
    "iata": "ATW",
    "icao": "KATW",
    "name": "Appleton International Airport",
    "city": "Appleton",
    "country": "US",
    "continent": "NA",
    "lat": 44.258515,
    "lng": -88.519,
    "elevation_ft": 918,
    "type": "airport"
  },
  {
    "iata": "ATY",
    "icao": "KATY",
    "name": "Watertown Regional Airport",
    "city": "Watertown",
    "country": "US",
    "continent": "NA",
    "lat": 44.91400146,
    "lng": -97.15470123,
    "elevation_ft": 1749,
    "type": "airport"
  },
  {
    "iata": "ATZ",
    "icao": "HEAT",
    "name": "Asyut International Airport",
    "city": "Asyut",
    "country": "EG",
    "continent": "AF",
    "lat": 27.045962,
    "lng": 31.01276,
    "elevation_ft": 748,
    "type": "airport"
  },
  {
    "iata": "AUA",
    "icao": "TNCA",
    "name": "Queen Beatrix International Airport",
    "city": "Oranjestad",
    "country": "AW",
    "continent": "NA",
    "lat": 12.501056,
    "lng": -70.014281,
    "elevation_ft": 60,
    "type": "airport"
  },
  {
    "iata": "AUC",
    "icao": "SKUC",
    "name": "Santiago Perez Airport",
    "city": "Arauca",
    "country": "CO",
    "continent": "SA",
    "lat": 7.06888,
    "lng": -70.7369,
    "elevation_ft": 420,
    "type": "airport"
  },
  {
    "iata": "AUG",
    "icao": "KAUG",
    "name": "Augusta State Airport",
    "city": "Augusta",
    "country": "US",
    "continent": "NA",
    "lat": 44.320598602299995,
    "lng": -69.7973022461,
    "elevation_ft": 352,
    "type": "airport"
  },
  {
    "iata": "AUH",
    "icao": "OMAA",
    "name": "Zayed International Airport",
    "city": "Abu Dhabi",
    "country": "AE",
    "continent": "AS",
    "lat": 24.440966,
    "lng": 54.649237,
    "elevation_ft": 88,
    "type": "airport"
  },
  {
    "iata": "AUQ",
    "icao": "NTMN",
    "name": "Hiva Oa-Atuona Airport",
    "city": "Hiva Oa Island",
    "country": "PF",
    "continent": "OC",
    "lat": -9.76879024506,
    "lng": -139.011001587,
    "elevation_ft": 1481,
    "type": "airport"
  },
  {
    "iata": "AUR",
    "icao": "LFLW",
    "name": "Aurillac airport",
    "city": "Aurillac",
    "country": "FR",
    "continent": "EU",
    "lat": 44.891399,
    "lng": 2.42194,
    "elevation_ft": 2096,
    "type": "airport"
  },
  {
    "iata": "AUS",
    "icao": "KAUS",
    "name": "Austin Bergstrom International Airport",
    "city": "Austin",
    "country": "US",
    "continent": "NA",
    "lat": 30.197535,
    "lng": -97.662015,
    "elevation_ft": 542,
    "type": "airport"
  },
  {
    "iata": "AUX",
    "icao": "SWGN",
    "name": "Araguaína Airport",
    "city": "Araguaína",
    "country": "BR",
    "continent": "SA",
    "lat": -7.22787,
    "lng": -48.240501,
    "elevation_ft": 771,
    "type": "airport"
  },
  {
    "iata": "AVA",
    "icao": "ZUAS",
    "name": "Anshun Huangguoshu Airport",
    "city": "Anshun (Xixiu)",
    "country": "CN",
    "continent": "AS",
    "lat": 26.260556,
    "lng": 105.873333,
    "elevation_ft": 4812,
    "type": "airport"
  },
  {
    "iata": "AVK",
    "icao": "ZMAH",
    "name": "Arvaikheer Airport",
    "city": "Arvaikheer",
    "country": "MN",
    "continent": "AS",
    "lat": 46.250301361083984,
    "lng": 102.802001953125,
    "elevation_ft": 5932,
    "type": "airport"
  },
  {
    "iata": "AVL",
    "icao": "KAVL",
    "name": "Asheville Regional Airport",
    "city": "Asheville",
    "country": "US",
    "continent": "NA",
    "lat": 35.435488,
    "lng": -82.541853,
    "elevation_ft": 2165,
    "type": "airport"
  },
  {
    "iata": "AVN",
    "icao": "LFMV",
    "name": "Avignon Caumont airport",
    "city": "Avignon",
    "country": "FR",
    "continent": "EU",
    "lat": 43.907299,
    "lng": 4.90183,
    "elevation_ft": 124,
    "type": "airport"
  },
  {
    "iata": "AVP",
    "icao": "KAVP",
    "name": "Wilkes-Barre/Scranton International Airport",
    "city": "Wilkes-Barre/Scranton",
    "country": "US",
    "continent": "NA",
    "lat": 41.337064,
    "lng": -75.724232,
    "elevation_ft": 962,
    "type": "airport"
  },
  {
    "iata": "AVV",
    "icao": "YMAV",
    "name": "Melbourne Avalon International Airport",
    "city": "Geelong/Melbourne",
    "country": "AU",
    "continent": "OC",
    "lat": -38.040269,
    "lng": 144.467196,
    "elevation_ft": 35,
    "type": "airport"
  },
  {
    "iata": "AWA",
    "icao": "HALA",
    "name": "Hawassa International Airport",
    "city": "Hawassa",
    "country": "ET",
    "continent": "AF",
    "lat": 7.100611,
    "lng": 38.396455,
    "elevation_ft": 5450,
    "type": "airport"
  },
  {
    "iata": "AWK",
    "icao": "PWAK",
    "name": "Wake Island Airfield",
    "city": "Wake Island",
    "country": "UM",
    "continent": "OC",
    "lat": 19.282437,
    "lng": 166.636637,
    "elevation_ft": 14,
    "type": "airport"
  },
  {
    "iata": "AWZ",
    "icao": "OIAW",
    "name": "Qasem Soleimani International Airport",
    "city": "Ahvaz",
    "country": "IR",
    "continent": "AS",
    "lat": 31.3364,
    "lng": 48.763789,
    "elevation_ft": 66,
    "type": "airport"
  },
  {
    "iata": "AXA",
    "icao": "TQPF",
    "name": "Clayton J. Lloyd International Airport",
    "city": "The Valley",
    "country": "AI",
    "continent": "NA",
    "lat": 18.204773,
    "lng": -63.05383,
    "elevation_ft": 127,
    "type": "airport"
  },
  {
    "iata": "AXD",
    "icao": "LGAL",
    "name": "Alexandroupoli Democritus Airport",
    "city": "Alexandroupolis",
    "country": "GR",
    "continent": "EU",
    "lat": 40.8559,
    "lng": 25.956301,
    "elevation_ft": 24,
    "type": "airport"
  },
  {
    "iata": "AXF",
    "icao": "ZBAL",
    "name": "Alxa Left Banner Bayanhot Airport",
    "city": "Bayanhot",
    "country": "CN",
    "continent": "AS",
    "lat": 38.748317,
    "lng": 105.58416,
    "elevation_ft": 4560,
    "type": "airport"
  },
  {
    "iata": "AXJ",
    "icao": "RJDA",
    "name": "Amakusa Airport",
    "city": "Amakusa",
    "country": "JP",
    "continent": "AS",
    "lat": 32.482498,
    "lng": 130.158997,
    "elevation_ft": 340,
    "type": "airport"
  },
  {
    "iata": "AXM",
    "icao": "SKAR",
    "name": "El Eden Airport",
    "city": "Armenia",
    "country": "CO",
    "continent": "SA",
    "lat": 4.45278,
    "lng": -75.7664,
    "elevation_ft": 3990,
    "type": "airport"
  },
  {
    "iata": "AXP",
    "icao": "MYAP",
    "name": "Spring Point Airport",
    "city": "Spring Point",
    "country": "BS",
    "continent": "NA",
    "lat": 22.441799,
    "lng": -73.970901,
    "elevation_ft": 11,
    "type": "airport"
  },
  {
    "iata": "AXR",
    "icao": "NTGU",
    "name": "Arutua Airport",
    "city": null,
    "country": "PF",
    "continent": "OC",
    "lat": -15.248299598693848,
    "lng": -146.61700439453125,
    "elevation_ft": 9,
    "type": "airport"
  },
  {
    "iata": "AXT",
    "icao": "RJSK",
    "name": "Akita Airport",
    "city": "Akita",
    "country": "JP",
    "continent": "AS",
    "lat": 39.615601,
    "lng": 140.218994,
    "elevation_ft": 313,
    "type": "airport"
  },
  {
    "iata": "AXU",
    "icao": "HAAX",
    "name": "Axum Airport",
    "city": "Axum",
    "country": "ET",
    "continent": "AF",
    "lat": 14.1468,
    "lng": 38.7728,
    "elevation_ft": 6959,
    "type": "airport"
  },
  {
    "iata": "AYJ",
    "icao": "VEAY",
    "name": "Maharshi Valmiki International Airport",
    "city": "Faizabad",
    "country": "IN",
    "continent": "AS",
    "lat": 26.747736,
    "lng": 82.163664,
    "elevation_ft": 335,
    "type": "airport"
  },
  {
    "iata": "AYP",
    "icao": "SPHO",
    "name": "Air Force Colonel Alfredo Mendivil Duarte Airport",
    "city": "Ayacucho",
    "country": "PE",
    "continent": "SA",
    "lat": -13.1548,
    "lng": -74.204399,
    "elevation_ft": 8917,
    "type": "airport"
  },
  {
    "iata": "AYQ",
    "icao": "YAYE",
    "name": "Ayers Rock Connellan Airport",
    "city": "Yulara",
    "country": "AU",
    "continent": "OC",
    "lat": -25.185913,
    "lng": 130.97703,
    "elevation_ft": 1626,
    "type": "airport"
  },
  {
    "iata": "AYT",
    "icao": "LTAI",
    "name": "Antalya International Airport",
    "city": "Antalya",
    "country": "TR",
    "continent": "AS",
    "lat": 36.898701,
    "lng": 30.800501,
    "elevation_ft": 177,
    "type": "airport"
  },
  {
    "iata": "AZA",
    "icao": "KIWA",
    "name": "Mesa Gateway Airport",
    "city": "Mesa",
    "country": "US",
    "continent": "NA",
    "lat": 33.3078,
    "lng": -111.654999,
    "elevation_ft": 1382,
    "type": "airport"
  },
  {
    "iata": "AZD",
    "icao": "OIYY",
    "name": "Shahid Sadooghi Airport",
    "city": "Yazd",
    "country": "IR",
    "continent": "AS",
    "lat": 31.9048995972,
    "lng": 54.2765007019,
    "elevation_ft": 4054,
    "type": "airport"
  },
  {
    "iata": "AZN",
    "icao": "UZFA",
    "name": "Andijan International Airport",
    "city": "Andijan",
    "country": "UZ",
    "continent": "AS",
    "lat": 40.727699,
    "lng": 72.293999,
    "elevation_ft": 1515,
    "type": "airport"
  },
  {
    "iata": "AZO",
    "icao": "KAZO",
    "name": "Kalamazoo/Battle Creek International Airport",
    "city": "Kalamazoo",
    "country": "US",
    "continent": "NA",
    "lat": 42.232105,
    "lng": -85.549637,
    "elevation_ft": 874,
    "type": "airport"
  },
  {
    "iata": "AZR",
    "icao": "DAUA",
    "name": "Touat-Cheikh Sidi Mohamed Belkebir Airport",
    "city": "Adrar",
    "country": "DZ",
    "continent": "AF",
    "lat": 27.837601,
    "lng": -0.186414,
    "elevation_ft": 919,
    "type": "airport"
  },
  {
    "iata": "AZS",
    "icao": "MDCY",
    "name": "Samaná El Catey International Airport",
    "city": "Samana",
    "country": "DO",
    "continent": "NA",
    "lat": 19.269259,
    "lng": -69.737405,
    "elevation_ft": 30,
    "type": "airport"
  },
  {
    "iata": "BAG",
    "icao": "RPUB",
    "name": "Loakan Airport",
    "city": "Baguio",
    "country": "PH",
    "continent": "AS",
    "lat": 16.375034,
    "lng": 120.619949,
    "elevation_ft": 4251,
    "type": "airport"
  },
  {
    "iata": "BAH",
    "icao": "OBBI",
    "name": "Bahrain International Airport",
    "city": "Manama",
    "country": "BH",
    "continent": "AS",
    "lat": 26.267295,
    "lng": 50.63764,
    "elevation_ft": 6,
    "type": "airport"
  },
  {
    "iata": "BAL",
    "icao": "LTCJ",
    "name": "Batman Airport",
    "city": "Batman",
    "country": "TR",
    "continent": "AS",
    "lat": 37.929001,
    "lng": 41.1166,
    "elevation_ft": 1822,
    "type": "airport"
  },
  {
    "iata": "BAQ",
    "icao": "SKBQ",
    "name": "Ernesto Cortissoz International Airport",
    "city": "Barranquilla",
    "country": "CO",
    "continent": "SA",
    "lat": 10.8896,
    "lng": -74.7808,
    "elevation_ft": 98,
    "type": "airport"
  },
  {
    "iata": "BAR",
    "icao": "ZJQH",
    "name": "Qionghai Bo'ao Airport",
    "city": "Qionghai (Basuo)",
    "country": "CN",
    "continent": "AS",
    "lat": 19.140951,
    "lng": 110.452766,
    "elevation_ft": 30,
    "type": "airport"
  },
  {
    "iata": "BAV",
    "icao": "ZBOW",
    "name": "Baotou Donghe International Airport",
    "city": "Baotou",
    "country": "CN",
    "continent": "AS",
    "lat": 40.560001,
    "lng": 109.997002,
    "elevation_ft": 3321,
    "type": "airport"
  },
  {
    "iata": "BAX",
    "icao": "UNBB",
    "name": "Barnaul Gherman Titov International Airport",
    "city": "Barnaul",
    "country": "RU",
    "continent": "AS",
    "lat": 53.361285,
    "lng": 83.539701,
    "elevation_ft": 837,
    "type": "airport"
  },
  {
    "iata": "BAY",
    "icao": "LRBM",
    "name": "Maramureș International Airport",
    "city": "Tăuții-Măgherăuș",
    "country": "RO",
    "continent": "EU",
    "lat": 47.658444,
    "lng": 23.464445,
    "elevation_ft": 605,
    "type": "airport"
  },
  {
    "iata": "BBA",
    "icao": "SCBA",
    "name": "Balmaceda Airport",
    "city": "Balmaceda",
    "country": "CL",
    "continent": "SA",
    "lat": -45.915968,
    "lng": -71.689499,
    "elevation_ft": 1722,
    "type": "airport"
  },
  {
    "iata": "BBI",
    "icao": "VEBS",
    "name": "Biju Patnaik International Airport",
    "city": "Bhubaneswar",
    "country": "IN",
    "continent": "AS",
    "lat": 20.251021,
    "lng": 85.814747,
    "elevation_ft": 138,
    "type": "airport"
  },
  {
    "iata": "BBK",
    "icao": "FBKE",
    "name": "Kasane International Airport",
    "city": "Kasane",
    "country": "BW",
    "continent": "AF",
    "lat": -17.831653,
    "lng": 25.166195,
    "elevation_ft": 3289,
    "type": "airport"
  },
  {
    "iata": "BBM",
    "icao": "VDBG",
    "name": "Battambang Airport",
    "city": "Battambang",
    "country": "KH",
    "continent": "AS",
    "lat": 13.0956,
    "lng": 103.223999,
    "elevation_ft": 59,
    "type": "airport"
  },
  {
    "iata": "BBN",
    "icao": "WBGZ",
    "name": "Bario Airport",
    "city": "Bario",
    "country": "MY",
    "continent": "AS",
    "lat": 3.734648,
    "lng": 115.478548,
    "elevation_ft": 3350,
    "type": "airport"
  },
  {
    "iata": "BBO",
    "icao": "HCMI",
    "name": "Berbera Airport",
    "city": "Berbera",
    "country": "SO",
    "continent": "AF",
    "lat": 10.385035,
    "lng": 44.936723,
    "elevation_ft": 30,
    "type": "airport"
  },
  {
    "iata": "BBQ",
    "icao": "TAPB",
    "name": "Burton-Nibbs International Airport",
    "city": "Codrington",
    "country": "AG",
    "continent": "NA",
    "lat": 17.621194,
    "lng": -61.798347,
    "elevation_ft": 28,
    "type": "airport"
  },
  {
    "iata": "BBU",
    "icao": "LRBS",
    "name": "Bucharest Băneasa Aurel Vlaicu International Airport",
    "city": "Bucharest",
    "country": "RO",
    "continent": "EU",
    "lat": 44.503133,
    "lng": 26.102944,
    "elevation_ft": 297,
    "type": "airport"
  },
  {
    "iata": "BCA",
    "icao": "MUBA",
    "name": "Gustavo Rizo Airport",
    "city": "Baracoa",
    "country": "CU",
    "continent": "NA",
    "lat": 20.365299224853516,
    "lng": -74.5062026977539,
    "elevation_ft": 26,
    "type": "airport"
  },
  {
    "iata": "BCD",
    "icao": "RPVB",
    "name": "Bacolod-Silay International Airport",
    "city": "Bacolod City",
    "country": "PH",
    "continent": "AS",
    "lat": 10.776237,
    "lng": 123.018879,
    "elevation_ft": 82,
    "type": "airport"
  },
  {
    "iata": "BCH",
    "icao": "WPEC",
    "name": "Baucau Airport",
    "city": "Baucau",
    "country": "TL",
    "continent": "AS",
    "lat": -8.486479,
    "lng": 126.399981,
    "elevation_ft": 1771,
    "type": "airport"
  },
  {
    "iata": "BCI",
    "icao": "YBAR",
    "name": "Barcaldine Airport",
    "city": "Barcaldine",
    "country": "AU",
    "continent": "OC",
    "lat": -23.566268,
    "lng": 145.302086,
    "elevation_ft": 878,
    "type": "airport"
  },
  {
    "iata": "BCM",
    "icao": "LRBC",
    "name": "Bacău George Enescu International  Airport",
    "city": "Bacău",
    "country": "RO",
    "continent": "EU",
    "lat": 46.5219,
    "lng": 26.910299,
    "elevation_ft": 607,
    "type": "airport"
  },
  {
    "iata": "BCN",
    "icao": "LEBL",
    "name": "Josep Tarradellas Barcelona-El Prat Airport",
    "city": "Barcelona",
    "country": "ES",
    "continent": "EU",
    "lat": 41.2971,
    "lng": 2.07846,
    "elevation_ft": 12,
    "type": "airport"
  },
  {
    "iata": "BCO",
    "icao": "HABC",
    "name": "Jinka Airport",
    "city": "Jinka",
    "country": "ET",
    "continent": "AF",
    "lat": 5.749655,
    "lng": 36.560165,
    "elevation_ft": 4475,
    "type": "airport"
  },
  {
    "iata": "BCU",
    "icao": "DNBC",
    "name": "Sir Abubakar Tafawa Balewa Bauchi State International Airport",
    "city": "Bauchi",
    "country": "NG",
    "continent": "AF",
    "lat": 10.482833,
    "lng": 9.744,
    "elevation_ft": 1965,
    "type": "airport"
  },
  {
    "iata": "BDA",
    "icao": "TXKF",
    "name": "L.F. Wade International Airport",
    "city": "Hamilton",
    "country": "BM",
    "continent": "NA",
    "lat": 32.363802,
    "lng": -64.67824,
    "elevation_ft": 12,
    "type": "airport"
  },
  {
    "iata": "BDB",
    "icao": "YBUD",
    "name": "Bundaberg Airport",
    "city": "Bundaberg",
    "country": "AU",
    "continent": "OC",
    "lat": -24.905039,
    "lng": 152.322612,
    "elevation_ft": 107,
    "type": "airport"
  },
  {
    "iata": "BDH",
    "icao": "OIBL",
    "name": "Bandar Lengeh International Airport",
    "city": "Bandar Lengeh",
    "country": "IR",
    "continent": "AS",
    "lat": 26.532283,
    "lng": 54.82484,
    "elevation_ft": 67,
    "type": "airport"
  },
  {
    "iata": "BDJ",
    "icao": "WAOO",
    "name": "Syamsudin Noor International Airport",
    "city": "Banjarbaru",
    "country": "ID",
    "continent": "AS",
    "lat": -3.440112,
    "lng": 114.761209,
    "elevation_ft": 66,
    "type": "airport"
  },
  {
    "iata": "BDL",
    "icao": "KBDL",
    "name": "Bradley International Airport",
    "city": "Hartford",
    "country": "US",
    "continent": "NA",
    "lat": 41.938555,
    "lng": -72.688016,
    "elevation_ft": 173,
    "type": "airport"
  },
  {
    "iata": "BDO",
    "icao": "WICC",
    "name": "Husein Sastranegara International Airport",
    "city": "Bandung",
    "country": "ID",
    "continent": "AS",
    "lat": -6.90063,
    "lng": 107.575996,
    "elevation_ft": 2436,
    "type": "airport"
  },
  {
    "iata": "BDQ",
    "icao": "VABO",
    "name": "Vadodara International Airport",
    "city": "Vadodara",
    "country": "IN",
    "continent": "AS",
    "lat": 22.336201,
    "lng": 73.226303,
    "elevation_ft": 129,
    "type": "airport"
  },
  {
    "iata": "BDS",
    "icao": "LIBR",
    "name": "Brindisi Airport",
    "city": "Brindisi",
    "country": "IT",
    "continent": "EU",
    "lat": 40.6576,
    "lng": 17.947001,
    "elevation_ft": 47,
    "type": "airport"
  },
  {
    "iata": "BDT",
    "icao": "FZFD",
    "name": "Gbadolite Airport",
    "city": "Gbadolite",
    "country": "CD",
    "continent": "AF",
    "lat": 4.252745,
    "lng": 20.975271,
    "elevation_ft": 1509,
    "type": "airport"
  },
  {
    "iata": "BDU",
    "icao": "ENDU",
    "name": "Bardufoss Airport",
    "city": "Målselv",
    "country": "NO",
    "continent": "EU",
    "lat": 69.055801,
    "lng": 18.5404,
    "elevation_ft": 252,
    "type": "airport"
  },
  {
    "iata": "BEB",
    "icao": "EGPL",
    "name": "Benbecula Airport",
    "city": "Balivanich",
    "country": "GB",
    "continent": "EU",
    "lat": 57.481098,
    "lng": -7.36278,
    "elevation_ft": 19,
    "type": "airport"
  },
  {
    "iata": "BED",
    "icao": "KBED",
    "name": "Laurence G Hanscom Field",
    "city": "Bedford",
    "country": "US",
    "continent": "NA",
    "lat": 42.470001,
    "lng": -71.289001,
    "elevation_ft": 133,
    "type": "airport"
  },
  {
    "iata": "BEF",
    "icao": "MNBL",
    "name": "Bluefields Airport",
    "city": "Bluefields",
    "country": "NI",
    "continent": "NA",
    "lat": 11.991,
    "lng": -83.774101,
    "elevation_ft": 20,
    "type": "airport"
  },
  {
    "iata": "BEG",
    "icao": "LYBE",
    "name": "Belgrade Nikola Tesla Airport",
    "city": "Belgrade",
    "country": "RS",
    "continent": "EU",
    "lat": 44.818401,
    "lng": 20.309099,
    "elevation_ft": 335,
    "type": "airport"
  },
  {
    "iata": "BEJ",
    "icao": "WAQT",
    "name": "Kalimarau Airport",
    "city": "Tanjung Redeb - Borneo Island",
    "country": "ID",
    "continent": "AS",
    "lat": 2.14776,
    "lng": 117.430705,
    "elevation_ft": 59,
    "type": "airport"
  },
  {
    "iata": "BEK",
    "icao": "VIBY",
    "name": "Bareilly Air Force Station",
    "city": "Bareilly",
    "country": "IN",
    "continent": "AS",
    "lat": 28.4221,
    "lng": 79.450798,
    "elevation_ft": 580,
    "type": "airport"
  },
  {
    "iata": "BEL",
    "icao": "SBBE",
    "name": "Val de Cans/Júlio Cezar Ribeiro International Airport",
    "city": "Belém",
    "country": "BR",
    "continent": "SA",
    "lat": -1.379279,
    "lng": -48.476207,
    "elevation_ft": 54,
    "type": "airport"
  },
  {
    "iata": "BEM",
    "icao": "GMMD",
    "name": "Beni Mellal Airport",
    "city": "Oulad Yaich",
    "country": "MA",
    "continent": "AF",
    "lat": 32.401895,
    "lng": -6.315905,
    "elevation_ft": 1694,
    "type": "airport"
  },
  {
    "iata": "BEN",
    "icao": "HLLB",
    "name": "Benina International Airport",
    "city": "Benina",
    "country": "LY",
    "continent": "AF",
    "lat": 32.096802,
    "lng": 20.269501,
    "elevation_ft": 433,
    "type": "airport"
  },
  {
    "iata": "BER",
    "icao": "EDDB",
    "name": "Berlin Brandenburg Airport",
    "city": "Berlin",
    "country": "DE",
    "continent": "EU",
    "lat": 52.361738,
    "lng": 13.502341,
    "elevation_ft": 157,
    "type": "airport"
  },
  {
    "iata": "BES",
    "icao": "LFRB",
    "name": "Brest Bretagne airport",
    "city": "Brest",
    "country": "FR",
    "continent": "EU",
    "lat": 48.447899,
    "lng": -4.41854,
    "elevation_ft": 325,
    "type": "airport"
  },
  {
    "iata": "BET",
    "icao": "PABE",
    "name": "Bethel Airport",
    "city": "Bethel",
    "country": "US",
    "continent": "NA",
    "lat": 60.77980042,
    "lng": -161.8379974,
    "elevation_ft": 126,
    "type": "airport"
  },
  {
    "iata": "BEU",
    "icao": "YBIE",
    "name": "Bedourie Airport",
    "city": "Bedourie",
    "country": "AU",
    "continent": "OC",
    "lat": -24.3461,
    "lng": 139.460007,
    "elevation_ft": 300,
    "type": "airport"
  },
  {
    "iata": "BEW",
    "icao": "FQBR",
    "name": "Beira International Airport",
    "city": "Beira",
    "country": "MZ",
    "continent": "AF",
    "lat": -19.7964,
    "lng": 34.9076,
    "elevation_ft": 33,
    "type": "airport"
  },
  {
    "iata": "BEY",
    "icao": "OLBA",
    "name": "Beirut Rafic Hariri International Airport",
    "city": "Beirut",
    "country": "LB",
    "continent": "AS",
    "lat": 33.819833,
    "lng": 35.487443,
    "elevation_ft": 87,
    "type": "airport"
  },
  {
    "iata": "BFD",
    "icao": "KBFD",
    "name": "Bradford Regional Airport",
    "city": "Bradford",
    "country": "US",
    "continent": "NA",
    "lat": 41.8031005859375,
    "lng": -78.64009857177734,
    "elevation_ft": 2143,
    "type": "airport"
  },
  {
    "iata": "BFF",
    "icao": "KBFF",
    "name": "Western Neb. Rgnl/William B. Heilig Airport",
    "city": "Scottsbluff",
    "country": "US",
    "continent": "NA",
    "lat": 41.87400055,
    "lng": -103.5960007,
    "elevation_ft": 3967,
    "type": "airport"
  },
  {
    "iata": "BFI",
    "icao": "KBFI",
    "name": "King County International Airport - Boeing Field",
    "city": "Seattle",
    "country": "US",
    "continent": "NA",
    "lat": 47.527042,
    "lng": -122.29995,
    "elevation_ft": 21,
    "type": "airport"
  },
  {
    "iata": "BFJ",
    "icao": "ZUBJ",
    "name": "Bijie Feixiong Airport",
    "city": "Bijie",
    "country": "CN",
    "continent": "AS",
    "lat": 27.267066,
    "lng": 105.472097,
    "elevation_ft": 4751,
    "type": "airport"
  },
  {
    "iata": "BFL",
    "icao": "KBFL",
    "name": "Meadows Field",
    "city": "Bakersfield",
    "country": "US",
    "continent": "NA",
    "lat": 35.433601,
    "lng": -119.056999,
    "elevation_ft": 510,
    "type": "airport"
  },
  {
    "iata": "BFN",
    "icao": "FABL",
    "name": "Bram Fischer International Airport",
    "city": "Bloemfontein",
    "country": "ZA",
    "continent": "AF",
    "lat": -29.092699,
    "lng": 26.302401,
    "elevation_ft": 4457,
    "type": "airport"
  },
  {
    "iata": "BFS",
    "icao": "EGAA",
    "name": "Belfast International Airport",
    "city": "Belfast",
    "country": "GB",
    "continent": "EU",
    "lat": 54.6575012207,
    "lng": -6.2158298492399995,
    "elevation_ft": 268,
    "type": "airport"
  },
  {
    "iata": "BFV",
    "icao": "VTUO",
    "name": "Buri Ram Airport",
    "city": "Buriram",
    "country": "TH",
    "continent": "AS",
    "lat": 15.2295,
    "lng": 103.252998,
    "elevation_ft": 590,
    "type": "airport"
  },
  {
    "iata": "BFY",
    "icao": "ZSBA",
    "name": "Bengbu Tenghu Airport",
    "city": "Bengbu",
    "country": "CN",
    "continent": "AS",
    "lat": 33.166292,
    "lng": 117.058344,
    "elevation_ft": null,
    "type": "airport"
  },
  {
    "iata": "BGA",
    "icao": "SKBG",
    "name": "Palonegro Airport",
    "city": "Bucaramanga",
    "country": "CO",
    "continent": "SA",
    "lat": 7.1265,
    "lng": -73.1848,
    "elevation_ft": 3897,
    "type": "airport"
  },
  {
    "iata": "BGC",
    "icao": "LPBG",
    "name": "Bragança Airport",
    "city": "Bragança",
    "country": "PT",
    "continent": "EU",
    "lat": 41.8578,
    "lng": -6.70713,
    "elevation_ft": 2241,
    "type": "airport"
  },
  {
    "iata": "BGF",
    "icao": "FEFF",
    "name": "Bangui M'Poko International Airport",
    "city": "Bangui",
    "country": "CF",
    "continent": "AF",
    "lat": 4.39848,
    "lng": 18.518801,
    "elevation_ft": 1208,
    "type": "airport"
  },
  {
    "iata": "BGI",
    "icao": "TBPB",
    "name": "Grantley Adams International Airport",
    "city": "Bridgetown",
    "country": "BB",
    "continent": "NA",
    "lat": 13.074667,
    "lng": -59.491034,
    "elevation_ft": 169,
    "type": "airport"
  },
  {
    "iata": "BGM",
    "icao": "KBGM",
    "name": "Greater Binghamton/Edwin A Link field",
    "city": "Binghamton",
    "country": "US",
    "continent": "NA",
    "lat": 42.20869827,
    "lng": -75.97979736,
    "elevation_ft": 1636,
    "type": "airport"
  },
  {
    "iata": "BGO",
    "icao": "ENBR",
    "name": "Bergen Airport, Flesland",
    "city": "Bergen",
    "country": "NO",
    "continent": "EU",
    "lat": 60.2934,
    "lng": 5.21814,
    "elevation_ft": 170,
    "type": "airport"
  },
  {
    "iata": "BGR",
    "icao": "KBGR",
    "name": "Bangor International Airport",
    "city": "Bangor",
    "country": "US",
    "continent": "NA",
    "lat": 44.806364,
    "lng": -68.826668,
    "elevation_ft": 192,
    "type": "airport"
  },
  {
    "iata": "BGW",
    "icao": "ORBI",
    "name": "Baghdad International Airport / New Al Muthana Air Base",
    "city": "Baghdad",
    "country": "IQ",
    "continent": "AS",
    "lat": 33.262501,
    "lng": 44.2346,
    "elevation_ft": 114,
    "type": "airport"
  },
  {
    "iata": "BGY",
    "icao": "LIME",
    "name": "Il Caravaggio International Airport",
    "city": "Orio al Serio (BG)",
    "country": "IT",
    "continent": "EU",
    "lat": 45.669362,
    "lng": 9.708851,
    "elevation_ft": 782,
    "type": "airport"
  },
  {
    "iata": "BHB",
    "icao": "KBHB",
    "name": "Hancock County-Bar Harbor Airport",
    "city": "Bar Harbor",
    "country": "US",
    "continent": "NA",
    "lat": 44.45000076,
    "lng": -68.3615036,
    "elevation_ft": 83,
    "type": "airport"
  },
  {
    "iata": "BHD",
    "icao": "EGAC",
    "name": "George Best Belfast City Airport",
    "city": "Belfast",
    "country": "GB",
    "continent": "EU",
    "lat": 54.618099,
    "lng": -5.8725,
    "elevation_ft": 15,
    "type": "airport"
  },
  {
    "iata": "BHE",
    "icao": "NZWB",
    "name": "Woodbourne Airport",
    "city": "Blenheim",
    "country": "NZ",
    "continent": "OC",
    "lat": -41.5182991027832,
    "lng": 173.8699951171875,
    "elevation_ft": 109,
    "type": "airport"
  },
  {
    "iata": "BHH",
    "icao": "OEBH",
    "name": "Bisha Airport",
    "city": "Bisha",
    "country": "SA",
    "continent": "AS",
    "lat": 19.9844,
    "lng": 42.620899,
    "elevation_ft": 3887,
    "type": "airport"
  },
  {
    "iata": "BHI",
    "icao": "SAZB",
    "name": "Comandante Espora Airport",
    "city": "Bahía Blanca",
    "country": "AR",
    "continent": "SA",
    "lat": -38.725,
    "lng": -62.1693,
    "elevation_ft": 246,
    "type": "airport"
  },
  {
    "iata": "BHJ",
    "icao": "VABJ",
    "name": "Bhuj Airport",
    "city": "Bhuj",
    "country": "IN",
    "continent": "AS",
    "lat": 23.2877998352,
    "lng": 69.6701965332,
    "elevation_ft": 268,
    "type": "airport"
  },
  {
    "iata": "BHK",
    "icao": "UZSB",
    "name": "Bukhara International Airport",
    "city": "Bukhara",
    "country": "UZ",
    "continent": "AS",
    "lat": 39.775319,
    "lng": 64.482279,
    "elevation_ft": 751,
    "type": "airport"
  },
  {
    "iata": "BHM",
    "icao": "KBHM",
    "name": "Birmingham-Shuttlesworth International Airport",
    "city": "Birmingham",
    "country": "US",
    "continent": "NA",
    "lat": 33.562877,
    "lng": -86.750712,
    "elevation_ft": 650,
    "type": "airport"
  },
  {
    "iata": "BHO",
    "icao": "VABP",
    "name": "Raja Bhoj International Airport",
    "city": "Bhopal",
    "country": "IN",
    "continent": "AS",
    "lat": 23.2875,
    "lng": 77.337402,
    "elevation_ft": 1711,
    "type": "airport"
  },
  {
    "iata": "BHQ",
    "icao": "YBHI",
    "name": "Broken Hill Airport",
    "city": "Broken Hill",
    "country": "AU",
    "continent": "OC",
    "lat": -32.0013999939,
    "lng": 141.472000122,
    "elevation_ft": 958,
    "type": "airport"
  },
  {
    "iata": "BHS",
    "icao": "YBTH",
    "name": "Bathurst Airport",
    "city": "Bathurst",
    "country": "AU",
    "continent": "OC",
    "lat": -33.406817,
    "lng": 149.651161,
    "elevation_ft": 2435,
    "type": "airport"
  },
  {
    "iata": "BHU",
    "icao": "VABV",
    "name": "Bhavnagar Airport",
    "city": "Bhavnagar",
    "country": "IN",
    "continent": "AS",
    "lat": 21.752199173,
    "lng": 72.1852035522,
    "elevation_ft": 44,
    "type": "airport"
  },
  {
    "iata": "BHV",
    "icao": "OPBW",
    "name": "Bahawalpur Airport",
    "city": "Bahawalpur",
    "country": "PK",
    "continent": "AS",
    "lat": 29.348100662231445,
    "lng": 71.71800231933594,
    "elevation_ft": 392,
    "type": "airport"
  },
  {
    "iata": "BHX",
    "icao": "EGBB",
    "name": "Birmingham Airport",
    "city": "Birmingham, West Midlands",
    "country": "GB",
    "continent": "EU",
    "lat": 52.453899,
    "lng": -1.74803,
    "elevation_ft": 327,
    "type": "airport"
  },
  {
    "iata": "BHY",
    "icao": "ZGBH",
    "name": "Beihai Fucheng Airport",
    "city": "Beihai",
    "country": "CN",
    "continent": "AS",
    "lat": 21.538659,
    "lng": 109.293683,
    "elevation_ft": 75,
    "type": "airport"
  },
  {
    "iata": "BIA",
    "icao": "LFKB",
    "name": "Bastia-Poretta International airport",
    "city": "Bastia",
    "country": "FR",
    "continent": "EU",
    "lat": 42.5527,
    "lng": 9.48373,
    "elevation_ft": 26,
    "type": "airport"
  },
  {
    "iata": "BIH",
    "icao": "KBIH",
    "name": "Eastern Sierra Regional Airport",
    "city": "Bishop",
    "country": "US",
    "continent": "NA",
    "lat": 37.3731,
    "lng": -118.363998,
    "elevation_ft": 4124,
    "type": "airport"
  },
  {
    "iata": "BIK",
    "icao": "WABB",
    "name": "Frans Kaisiepo Airport",
    "city": "Biak",
    "country": "ID",
    "continent": "AS",
    "lat": -1.19002,
    "lng": 136.108002,
    "elevation_ft": 46,
    "type": "airport"
  },
  {
    "iata": "BIL",
    "icao": "KBIL",
    "name": "Billings Logan International Airport",
    "city": "Billings",
    "country": "US",
    "continent": "NA",
    "lat": 45.808932,
    "lng": -108.541242,
    "elevation_ft": 3652,
    "type": "airport"
  },
  {
    "iata": "BIM",
    "icao": "MYBS",
    "name": "South Bimini Airport",
    "city": "South Bimini",
    "country": "BS",
    "continent": "NA",
    "lat": 25.6998996735,
    "lng": -79.2647018433,
    "elevation_ft": 10,
    "type": "airport"
  },
  {
    "iata": "BIO",
    "icao": "LEBB",
    "name": "Bilbao Airport",
    "city": "Bilbao",
    "country": "ES",
    "continent": "EU",
    "lat": 43.301102,
    "lng": -2.91061,
    "elevation_ft": 138,
    "type": "airport"
  },
  {
    "iata": "BIQ",
    "icao": "LFBZ",
    "name": "Biarritz Pays Basque airport",
    "city": "Biarritz",
    "country": "FR",
    "continent": "EU",
    "lat": 43.468372,
    "lng": -1.523223,
    "elevation_ft": 245,
    "type": "airport"
  },
  {
    "iata": "BIR",
    "icao": "VNVT",
    "name": "Biratnagar Airport",
    "city": "Biratnagar",
    "country": "NP",
    "continent": "AS",
    "lat": 26.48150062561035,
    "lng": 87.26399993896484,
    "elevation_ft": 236,
    "type": "airport"
  },
  {
    "iata": "BIS",
    "icao": "KBIS",
    "name": "Bismarck Municipal Airport",
    "city": "Bismarck",
    "country": "US",
    "continent": "NA",
    "lat": 46.772734,
    "lng": -100.746874,
    "elevation_ft": 1661,
    "type": "airport"
  },
  {
    "iata": "BJA",
    "icao": "DAAE",
    "name": "Soummam–Abane Ramdane Airport",
    "city": "Béjaïa",
    "country": "DZ",
    "continent": "AF",
    "lat": 36.712547,
    "lng": 5.069909,
    "elevation_ft": 20,
    "type": "airport"
  },
  {
    "iata": "BJB",
    "icao": "OIMN",
    "name": "Bojnord Airport",
    "city": "Bojnord",
    "country": "IR",
    "continent": "AS",
    "lat": 37.49300003051758,
    "lng": 57.30820083618164,
    "elevation_ft": 3499,
    "type": "airport"
  },
  {
    "iata": "BJC",
    "icao": "KBJC",
    "name": "Rocky Mountain Metropolitan Airport",
    "city": "Denver",
    "country": "US",
    "continent": "NA",
    "lat": 39.908798,
    "lng": -105.116997,
    "elevation_ft": 5673,
    "type": "airport"
  },
  {
    "iata": "BJF",
    "icao": "ENBS",
    "name": "Båtsfjord Airport",
    "city": "Båtsfjord",
    "country": "NO",
    "continent": "EU",
    "lat": 70.60025,
    "lng": 29.692612,
    "elevation_ft": 490,
    "type": "airport"
  },
  {
    "iata": "BJL",
    "icao": "GBYD",
    "name": "Banjul International Airport",
    "city": "Yundum",
    "country": "GM",
    "continent": "AF",
    "lat": 13.338,
    "lng": -16.652201,
    "elevation_ft": 95,
    "type": "airport"
  },
  {
    "iata": "BJM",
    "icao": "HBBA",
    "name": "Bujumbura Melchior Ndadaye International Airport",
    "city": "Bujumbura",
    "country": "BI",
    "continent": "AF",
    "lat": -3.32402,
    "lng": 29.318501,
    "elevation_ft": 2582,
    "type": "airport"
  },
  {
    "iata": "BJR",
    "icao": "HABD",
    "name": "Bahir Dar Airport",
    "city": "Bahir Dar",
    "country": "ET",
    "continent": "AF",
    "lat": 11.6081,
    "lng": 37.321602,
    "elevation_ft": 5978,
    "type": "airport"
  },
  {
    "iata": "BJV",
    "icao": "LTFE",
    "name": "Milas Bodrum International Airport",
    "city": "Bodrum",
    "country": "TR",
    "continent": "AS",
    "lat": 37.249314,
    "lng": 27.66401,
    "elevation_ft": 21,
    "type": "airport"
  },
  {
    "iata": "BJX",
    "icao": "MMLO",
    "name": "Guanajuato International Airport",
    "city": "Silao",
    "country": "MX",
    "continent": "NA",
    "lat": 20.992695,
    "lng": -101.480284,
    "elevation_ft": 5956,
    "type": "airport"
  },
  {
    "iata": "BJZ",
    "icao": "LEBZ",
    "name": "Badajoz Airport",
    "city": "Badajoz",
    "country": "ES",
    "continent": "EU",
    "lat": 38.8913,
    "lng": -6.82133,
    "elevation_ft": 609,
    "type": "airport"
  },
  {
    "iata": "BKG",
    "icao": "KBBG",
    "name": "Branson Airport",
    "city": "Branson",
    "country": "US",
    "continent": "NA",
    "lat": 36.532082,
    "lng": -93.200544,
    "elevation_ft": 1302,
    "type": "airport"
  },
  {
    "iata": "BKI",
    "icao": "WBKK",
    "name": "Kota Kinabalu International Airport",
    "city": "Kota Kinabalu",
    "country": "MY",
    "continent": "AS",
    "lat": 5.932743,
    "lng": 116.049324,
    "elevation_ft": 10,
    "type": "airport"
  },
  {
    "iata": "BKK",
    "icao": "VTBS",
    "name": "Suvarnabhumi Airport",
    "city": "Bangkok",
    "country": "TH",
    "continent": "AS",
    "lat": 13.6811,
    "lng": 100.747002,
    "elevation_ft": 5,
    "type": "airport"
  },
  {
    "iata": "BKN",
    "icao": "UTAN",
    "name": "Balkanabat International Airport",
    "city": "Balkanabat",
    "country": "TM",
    "continent": "AS",
    "lat": 39.681052,
    "lng": 54.206008,
    "elevation_ft": -26,
    "type": "airport"
  },
  {
    "iata": "BKO",
    "icao": "GABS",
    "name": "Modibo Keita International Airport",
    "city": "Bamako",
    "country": "ML",
    "continent": "AF",
    "lat": 12.5335,
    "lng": -7.94994,
    "elevation_ft": 1247,
    "type": "airport"
  },
  {
    "iata": "BKQ",
    "icao": "YBCK",
    "name": "Blackall Airport",
    "city": "Blackall",
    "country": "AU",
    "continent": "OC",
    "lat": -24.431678,
    "lng": 145.429716,
    "elevation_ft": 928,
    "type": "airport"
  },
  {
    "iata": "BKS",
    "icao": "WIGG",
    "name": "Fatmawati Soekarno Airport",
    "city": "Bengkulu",
    "country": "ID",
    "continent": "AS",
    "lat": -3.8637,
    "lng": 102.338997,
    "elevation_ft": 50,
    "type": "airport"
  },
  {
    "iata": "BKW",
    "icao": "KBKW",
    "name": "Raleigh County Memorial Airport",
    "city": "Beaver",
    "country": "US",
    "continent": "NA",
    "lat": 37.7873,
    "lng": -81.124199,
    "elevation_ft": 2504,
    "type": "airport"
  },
  {
    "iata": "BLA",
    "icao": "SVBC",
    "name": "General José Antonio Anzoategui International Airport",
    "city": "Barcelona",
    "country": "VE",
    "continent": "SA",
    "lat": 10.111111,
    "lng": -64.692222,
    "elevation_ft": 30,
    "type": "airport"
  },
  {
    "iata": "BLD",
    "icao": "KBVU",
    "name": "Boulder City Municipal Airport",
    "city": "Boulder City",
    "country": "US",
    "continent": "NA",
    "lat": 35.947161,
    "lng": -114.858799,
    "elevation_ft": 2201,
    "type": "airport"
  },
  {
    "iata": "BLE",
    "icao": "ESSD",
    "name": "Dala Airport",
    "city": "Borlange",
    "country": "SE",
    "continent": "EU",
    "lat": 60.422001,
    "lng": 15.5152,
    "elevation_ft": 503,
    "type": "airport"
  },
  {
    "iata": "BLI",
    "icao": "KBLI",
    "name": "Bellingham International Airport",
    "city": "Bellingham",
    "country": "US",
    "continent": "NA",
    "lat": 48.79280090332031,
    "lng": -122.53800201416016,
    "elevation_ft": 170,
    "type": "airport"
  },
  {
    "iata": "BLJ",
    "icao": "DABT",
    "name": "Batna Mostefa Ben Boulaid Airport",
    "city": "Batna",
    "country": "DZ",
    "continent": "AF",
    "lat": 35.752102,
    "lng": 6.30859,
    "elevation_ft": 2697,
    "type": "airport"
  },
  {
    "iata": "BLL",
    "icao": "EKBI",
    "name": "Billund Airport",
    "city": "Billund",
    "country": "DK",
    "continent": "EU",
    "lat": 55.740335,
    "lng": 9.157019,
    "elevation_ft": 247,
    "type": "airport"
  },
  {
    "iata": "BLQ",
    "icao": "LIPE",
    "name": "Bologna Guglielmo Marconi Airport",
    "city": "Bologna",
    "country": "IT",
    "continent": "EU",
    "lat": 44.5354,
    "lng": 11.2887,
    "elevation_ft": 123,
    "type": "airport"
  },
  {
    "iata": "BLR",
    "icao": "VOBL",
    "name": "Kempegowda International Airport Bengaluru",
    "city": "Bengaluru",
    "country": "IN",
    "continent": "AS",
    "lat": 13.1979,
    "lng": 77.706299,
    "elevation_ft": 3000,
    "type": "airport"
  },
  {
    "iata": "BLV",
    "icao": "KBLV",
    "name": "Scott AFB/Midamerica Airport",
    "city": "Belleville",
    "country": "US",
    "continent": "NA",
    "lat": 38.5452,
    "lng": -89.835197,
    "elevation_ft": 459,
    "type": "airport"
  },
  {
    "iata": "BLZ",
    "icao": "FWCL",
    "name": "Chileka International Airport",
    "city": "Blantyre",
    "country": "MW",
    "continent": "AF",
    "lat": -15.677189,
    "lng": 34.972319,
    "elevation_ft": 2555,
    "type": "airport"
  },
  {
    "iata": "BMA",
    "icao": "ESSB",
    "name": "Stockholm-Bromma Airport",
    "city": "Stockholm",
    "country": "SE",
    "continent": "EU",
    "lat": 59.354401,
    "lng": 17.9417,
    "elevation_ft": 47,
    "type": "airport"
  },
  {
    "iata": "BME",
    "icao": "YBRM",
    "name": "Broome International Airport",
    "city": "Broome",
    "country": "AU",
    "continent": "OC",
    "lat": -17.949194,
    "lng": 122.2283,
    "elevation_ft": 56,
    "type": "airport"
  },
  {
    "iata": "BMI",
    "icao": "KBMI",
    "name": "Central Illinois Regional Airport at Bloomington-Normal",
    "city": "Bloomington/Normal",
    "country": "US",
    "continent": "NA",
    "lat": 40.4771,
    "lng": -88.915901,
    "elevation_ft": 871,
    "type": "airport"
  },
  {
    "iata": "BMU",
    "icao": "WADB",
    "name": "Sultan Muhammad Salahuddin Airport",
    "city": "Bima",
    "country": "ID",
    "continent": "AS",
    "lat": -8.537184,
    "lng": 118.685002,
    "elevation_ft": 3,
    "type": "airport"
  },
  {
    "iata": "BMV",
    "icao": "VVBM",
    "name": "Buon Ma Thuot Airport",
    "city": "Buon Ma Thuot",
    "country": "VN",
    "continent": "AS",
    "lat": 12.668299675,
    "lng": 108.120002747,
    "elevation_ft": 1729,
    "type": "airport"
  },
  {
    "iata": "BMW",
    "icao": "DATM",
    "name": "Bordj Badji Mokhtar Airport",
    "city": "Bordj Badji Mokhtar",
    "country": "DZ",
    "continent": "AF",
    "lat": 21.3778,
    "lng": 0.92698,
    "elevation_ft": 1303,
    "type": "airport"
  },
  {
    "iata": "BNA",
    "icao": "KBNA",
    "name": "Nashville International Airport",
    "city": "Nashville",
    "country": "US",
    "continent": "NA",
    "lat": 36.1245,
    "lng": -86.6782,
    "elevation_ft": 599,
    "type": "airport"
  },
  {
    "iata": "BND",
    "icao": "OIKB",
    "name": "Bandar Abbas International Airport",
    "city": "Bandar Abbas",
    "country": "IR",
    "continent": "AS",
    "lat": 27.2183,
    "lng": 56.3778,
    "elevation_ft": 22,
    "type": "airport"
  },
  {
    "iata": "BNE",
    "icao": "YBBN",
    "name": "Brisbane International Airport",
    "city": "Brisbane",
    "country": "AU",
    "continent": "OC",
    "lat": -27.384199142456055,
    "lng": 153.11700439453125,
    "elevation_ft": 13,
    "type": "airport"
  },
  {
    "iata": "BNI",
    "icao": "DNBE",
    "name": "Benin Airport",
    "city": "Benin",
    "country": "NG",
    "continent": "AF",
    "lat": 6.316979885101318,
    "lng": 5.5995001792907715,
    "elevation_ft": 258,
    "type": "airport"
  },
  {
    "iata": "BNK",
    "icao": "YBNA",
    "name": "Ballina Byron Gateway Airport",
    "city": "Ballina",
    "country": "AU",
    "continent": "OC",
    "lat": -28.833236,
    "lng": 153.561471,
    "elevation_ft": 7,
    "type": "airport"
  },
  {
    "iata": "BNN",
    "icao": "ENBN",
    "name": "Brønnøysund Airport, Brønnøy",
    "city": "Brønnøy",
    "country": "NO",
    "continent": "EU",
    "lat": 65.461098,
    "lng": 12.2175,
    "elevation_ft": 25,
    "type": "airport"
  },
  {
    "iata": "BNS",
    "icao": "SVBI",
    "name": "Barinas Airport",
    "city": "Barinas",
    "country": "VE",
    "continent": "SA",
    "lat": 8.615,
    "lng": -70.214167,
    "elevation_ft": 615,
    "type": "airport"
  },
  {
    "iata": "BNX",
    "icao": "LQBK",
    "name": "Banja Luka International Airport",
    "city": "Mahovljani",
    "country": "BA",
    "continent": "EU",
    "lat": 44.941399,
    "lng": 17.297501,
    "elevation_ft": 400,
    "type": "airport"
  },
  {
    "iata": "BOB",
    "icao": "NTTB",
    "name": "Bora Bora Airport",
    "city": "Motu Mute",
    "country": "PF",
    "continent": "OC",
    "lat": -16.444400787353516,
    "lng": -151.75100708007812,
    "elevation_ft": 10,
    "type": "airport"
  },
  {
    "iata": "BOC",
    "icao": "MPBO",
    "name": "Bocas del Toro \"Isla Colón\" International Airport",
    "city": "Isla Colón",
    "country": "PA",
    "continent": "NA",
    "lat": 9.34085,
    "lng": -82.250801,
    "elevation_ft": 10,
    "type": "airport"
  },
  {
    "iata": "BOD",
    "icao": "LFBD",
    "name": "Bordeaux–Mérignac Airport",
    "city": "Bordeaux",
    "country": "FR",
    "continent": "EU",
    "lat": 44.82865,
    "lng": -0.715356,
    "elevation_ft": 162,
    "type": "airport"
  },
  {
    "iata": "BOG",
    "icao": "SKBO",
    "name": "El Dorado International Airport",
    "city": "Bogota",
    "country": "CO",
    "continent": "SA",
    "lat": 4.70159,
    "lng": -74.1469,
    "elevation_ft": 8361,
    "type": "airport"
  },
  {
    "iata": "BOH",
    "icao": "EGHH",
    "name": "Bournemouth Airport",
    "city": "Bournemouth",
    "country": "GB",
    "continent": "EU",
    "lat": 50.780483,
    "lng": -1.839576,
    "elevation_ft": 38,
    "type": "airport"
  },
  {
    "iata": "BOI",
    "icao": "KBOI",
    "name": "Boise Air Terminal/Gowen Field",
    "city": "Boise",
    "country": "US",
    "continent": "NA",
    "lat": 43.5644,
    "lng": -116.223,
    "elevation_ft": 2871,
    "type": "airport"
  },
  {
    "iata": "BOJ",
    "icao": "LBBG",
    "name": "Burgas Airport",
    "city": "Burgas",
    "country": "BG",
    "continent": "EU",
    "lat": 42.569917,
    "lng": 27.515173,
    "elevation_ft": 135,
    "type": "airport"
  },
  {
    "iata": "BOM",
    "icao": "VABB",
    "name": "Chhatrapati Shivaji Maharaj International Airport",
    "city": "Mumbai",
    "country": "IN",
    "continent": "AS",
    "lat": 19.088699,
    "lng": 72.867897,
    "elevation_ft": 39,
    "type": "airport"
  },
  {
    "iata": "BON",
    "icao": "TNCB",
    "name": "Flamingo International Airport",
    "city": "Kralendijk",
    "country": "BQ",
    "continent": "NA",
    "lat": 12.131,
    "lng": -68.268501,
    "elevation_ft": 20,
    "type": "airport"
  },
  {
    "iata": "BOO",
    "icao": "ENBO",
    "name": "Bodø Airport",
    "city": "Bodø",
    "country": "NO",
    "continent": "EU",
    "lat": 67.269203,
    "lng": 14.3653,
    "elevation_ft": 42,
    "type": "airport"
  },
  {
    "iata": "BOR",
    "icao": "VLBK",
    "name": "Bokeo International Airport",
    "city": "Ton Phueng",
    "country": "LA",
    "continent": "AS",
    "lat": 20.323986,
    "lng": 100.165392,
    "elevation_ft": 1175,
    "type": "airport"
  },
  {
    "iata": "BOS",
    "icao": "KBOS",
    "name": "Boston Logan International Airport",
    "city": "Boston",
    "country": "US",
    "continent": "NA",
    "lat": 42.36197,
    "lng": -71.0079,
    "elevation_ft": 20,
    "type": "airport"
  },
  {
    "iata": "BOY",
    "icao": "DFOO",
    "name": "Bobo Dioulasso Airport",
    "city": "Bobo Dioulasso",
    "country": "BF",
    "continent": "AF",
    "lat": 11.1601,
    "lng": -4.33097,
    "elevation_ft": 1511,
    "type": "airport"
  },
  {
    "iata": "BPE",
    "icao": "ZBDH",
    "name": "Qinhuangdao Beidaihe Airport",
    "city": "Qinhuangdao (Changli)",
    "country": "CN",
    "continent": "AS",
    "lat": 39.666384,
    "lng": 119.061384,
    "elevation_ft": 46,
    "type": "airport"
  },
  {
    "iata": "BPL",
    "icao": "ZWBL",
    "name": "Bole Alashankou Airport",
    "city": "Bole",
    "country": "CN",
    "continent": "AS",
    "lat": 44.895461,
    "lng": 82.30007,
    "elevation_ft": 1253,
    "type": "airport"
  },
  {
    "iata": "BPN",
    "icao": "WALL",
    "name": "Sultan Aji Muhammad Sulaiman Sepinggan International Airport",
    "city": "Balikpapan",
    "country": "ID",
    "continent": "AS",
    "lat": -1.268342,
    "lng": 116.89452,
    "elevation_ft": 12,
    "type": "airport"
  },
  {
    "iata": "BPS",
    "icao": "SBPS",
    "name": "Porto Seguro International Airport",
    "city": "Porto Seguro",
    "country": "BR",
    "continent": "SA",
    "lat": -16.438426,
    "lng": -39.080584,
    "elevation_ft": 169,
    "type": "airport"
  },
  {
    "iata": "BPT",
    "icao": "KBPT",
    "name": "Jack Brooks Regional Airport",
    "city": "Beaumont/Port Arthur",
    "country": "US",
    "continent": "NA",
    "lat": 29.9508,
    "lng": -94.020699,
    "elevation_ft": 15,
    "type": "airport"
  },
  {
    "iata": "BPX",
    "icao": "ZUBD",
    "name": "Qamdo Bangda Airport",
    "city": "Bangda",
    "country": "CN",
    "continent": "AS",
    "lat": 30.553600311279297,
    "lng": 97.1082992553711,
    "elevation_ft": 14219,
    "type": "airport"
  },
  {
    "iata": "BPY",
    "icao": "FMNQ",
    "name": "Besalampy Airport",
    "city": "Besalampy",
    "country": "MG",
    "continent": "AF",
    "lat": -16.74453,
    "lng": 44.482484,
    "elevation_ft": 125,
    "type": "airport"
  },
  {
    "iata": "BQK",
    "icao": "KBQK",
    "name": "Brunswick Golden Isles Airport",
    "city": "Brunswick",
    "country": "US",
    "continent": "NA",
    "lat": 31.258801,
    "lng": -81.466499,
    "elevation_ft": 26,
    "type": "airport"
  },
  {
    "iata": "BQL",
    "icao": "YBOU",
    "name": "Boulia Airport",
    "city": null,
    "country": "AU",
    "continent": "OC",
    "lat": -22.913299560546875,
    "lng": 139.89999389648438,
    "elevation_ft": 542,
    "type": "airport"
  },
  {
    "iata": "BQN",
    "icao": "TJBQ",
    "name": "Rafael Hernández International Airport",
    "city": "Aguadilla",
    "country": "PR",
    "continent": "NA",
    "lat": 18.4949,
    "lng": -67.129402,
    "elevation_ft": 237,
    "type": "airport"
  },
  {
    "iata": "BQS",
    "icao": "UHBB",
    "name": "Ignatyevo Airport",
    "city": "Blagoveschensk",
    "country": "RU",
    "continent": "AS",
    "lat": 50.42539978027344,
    "lng": 127.41200256347656,
    "elevation_ft": 638,
    "type": "airport"
  },
  {
    "iata": "BQT",
    "icao": "UMBB",
    "name": "Brest International Airport",
    "city": "Brest",
    "country": "BY",
    "continent": "EU",
    "lat": 52.108138,
    "lng": 23.89676,
    "elevation_ft": 468,
    "type": "airport"
  },
  {
    "iata": "BQU",
    "icao": "TVSB",
    "name": "J F Mitchell Airport",
    "city": "Bequia",
    "country": "VC",
    "continent": "NA",
    "lat": 12.9884,
    "lng": -61.262001,
    "elevation_ft": 15,
    "type": "airport"
  },
  {
    "iata": "BRC",
    "icao": "SAZS",
    "name": "Teniente Luis Candelaria International Airport",
    "city": "San Carlos de Bariloche",
    "country": "AR",
    "continent": "SA",
    "lat": -41.151199,
    "lng": -71.157501,
    "elevation_ft": 2774,
    "type": "airport"
  },
  {
    "iata": "BRD",
    "icao": "KBRD",
    "name": "Brainerd Lakes Regional Airport",
    "city": "Brainerd",
    "country": "US",
    "continent": "NA",
    "lat": 46.402861,
    "lng": -94.129727,
    "elevation_ft": 1232,
    "type": "airport"
  },
  {
    "iata": "BRE",
    "icao": "EDDW",
    "name": "Bremen Airport",
    "city": "Bremen",
    "country": "DE",
    "continent": "EU",
    "lat": 53.046786,
    "lng": 8.78932,
    "elevation_ft": 14,
    "type": "airport"
  },
  {
    "iata": "BRI",
    "icao": "LIBD",
    "name": "Bari Karol Wojtyła International Airport",
    "city": "Bari",
    "country": "IT",
    "continent": "EU",
    "lat": 41.138901,
    "lng": 16.760599,
    "elevation_ft": 193,
    "type": "airport"
  },
  {
    "iata": "BRK",
    "icao": "YBKE",
    "name": "Bourke Airport",
    "city": null,
    "country": "AU",
    "continent": "OC",
    "lat": -30.039199829101562,
    "lng": 145.95199584960938,
    "elevation_ft": 352,
    "type": "airport"
  },
  {
    "iata": "BRL",
    "icao": "KBRL",
    "name": "Southeast Iowa Regional Airport",
    "city": "Burlington",
    "country": "US",
    "continent": "NA",
    "lat": 40.783199310302734,
    "lng": -91.12550354003906,
    "elevation_ft": 698,
    "type": "airport"
  },
  {
    "iata": "BRM",
    "icao": "SVBM",
    "name": "Jacinto Lara International Airport",
    "city": "Barquisimeto",
    "country": "VE",
    "continent": "SA",
    "lat": 10.042747,
    "lng": -69.35862,
    "elevation_ft": 2042,
    "type": "airport"
  },
  {
    "iata": "BRN",
    "icao": "LSZB",
    "name": "Bern Airport",
    "city": "Bern",
    "country": "CH",
    "continent": "EU",
    "lat": 46.912736,
    "lng": 7.498819,
    "elevation_ft": 1671,
    "type": "airport"
  },
  {
    "iata": "BRO",
    "icao": "KBRO",
    "name": "Brownsville South Padre Island International Airport",
    "city": "Brownsville",
    "country": "US",
    "continent": "NA",
    "lat": 25.907238,
    "lng": -97.425235,
    "elevation_ft": 22,
    "type": "airport"
  },
  {
    "iata": "BRQ",
    "icao": "LKTB",
    "name": "Brno-Tuřany Airport",
    "city": "Brno",
    "country": "CZ",
    "continent": "EU",
    "lat": 49.151276,
    "lng": 16.693972,
    "elevation_ft": 778,
    "type": "airport"
  },
  {
    "iata": "BRR",
    "icao": "EGPR",
    "name": "Barra Airport",
    "city": "Eoligarry",
    "country": "GB",
    "continent": "EU",
    "lat": 57.0228,
    "lng": -7.44306,
    "elevation_ft": 5,
    "type": "airport"
  },
  {
    "iata": "BRS",
    "icao": "EGGD",
    "name": "Bristol Airport",
    "city": "Bristol",
    "country": "GB",
    "continent": "EU",
    "lat": 51.382326,
    "lng": -2.716453,
    "elevation_ft": 622,
    "type": "airport"
  },
  {
    "iata": "BRU",
    "icao": "EBBR",
    "name": "Brussels Airport",
    "city": "Zaventem",
    "country": "BE",
    "continent": "EU",
    "lat": 50.901402,
    "lng": 4.48444,
    "elevation_ft": 175,
    "type": "airport"
  },
  {
    "iata": "BRW",
    "icao": "PABR",
    "name": "Wiley Post Will Rogers Memorial Airport",
    "city": "Utqiaġvik",
    "country": "US",
    "continent": "NA",
    "lat": 71.285402,
    "lng": -156.766008,
    "elevation_ft": 44,
    "type": "airport"
  },
  {
    "iata": "BRX",
    "icao": "MDBH",
    "name": "Maria Montez International Airport",
    "city": "Barahona",
    "country": "DO",
    "continent": "NA",
    "lat": 18.25149917602539,
    "lng": -71.12039947509766,
    "elevation_ft": 10,
    "type": "airport"
  },
  {
    "iata": "BSA",
    "icao": "HCMF",
    "name": "Bender Qassim International Airport",
    "city": "Bosaso",
    "country": "SO",
    "continent": "AF",
    "lat": 11.275235,
    "lng": 49.139231,
    "elevation_ft": 3,
    "type": "airport"
  },
  {
    "iata": "BSB",
    "icao": "SBBR",
    "name": "Presidente Juscelino Kubitschek International Airport",
    "city": "Brasília",
    "country": "BR",
    "continent": "SA",
    "lat": -15.869167,
    "lng": -47.920834,
    "elevation_ft": 3497,
    "type": "airport"
  },
  {
    "iata": "BSC",
    "icao": "SKBS",
    "name": "José Celestino Mutis Airport",
    "city": "Bahía Solano",
    "country": "CO",
    "continent": "SA",
    "lat": 6.20292,
    "lng": -77.3947,
    "elevation_ft": 80,
    "type": "airport"
  },
  {
    "iata": "BSD",
    "icao": "ZPBS",
    "name": "Baoshan Yunrui Airport",
    "city": "Baoshan (Longyang)",
    "country": "CN",
    "continent": "AS",
    "lat": 25.053301,
    "lng": 99.168297,
    "elevation_ft": 5453,
    "type": "airport"
  },
  {
    "iata": "BSG",
    "icao": "FGBT",
    "name": "Bata International Airport",
    "city": "Bata",
    "country": "GQ",
    "continent": "AF",
    "lat": 1.90547,
    "lng": 9.80568,
    "elevation_ft": 13,
    "type": "airport"
  },
  {
    "iata": "BSK",
    "icao": "DAUB",
    "name": "Biskra - Mohamed Khider Airport",
    "city": "Biskra",
    "country": "DZ",
    "continent": "AF",
    "lat": 34.79318,
    "lng": 5.738899,
    "elevation_ft": 289,
    "type": "airport"
  },
  {
    "iata": "BSL",
    "icao": "LFSB",
    "name": "EuroAirport Basel–Mulhouse–Freiburg",
    "city": "Bâle / Mulhouse",
    "country": "FR",
    "continent": "EU",
    "lat": 47.60068,
    "lng": 7.521117,
    "elevation_ft": 885,
    "type": "airport"
  },
  {
    "iata": "BSO",
    "icao": "RPUO",
    "name": "Basco Airport",
    "city": "Basco",
    "country": "PH",
    "continent": "AS",
    "lat": 20.4513,
    "lng": 121.980003,
    "elevation_ft": 291,
    "type": "airport"
  },
  {
    "iata": "BSR",
    "icao": "ORMM",
    "name": "Basra International Airport",
    "city": "Basra",
    "country": "IQ",
    "continent": "AS",
    "lat": 30.549101,
    "lng": 47.662102,
    "elevation_ft": 11,
    "type": "airport"
  },
  {
    "iata": "BSZ",
    "icao": "UCFM",
    "name": "Manas International Airport",
    "city": "Bishkek",
    "country": "KG",
    "continent": "AS",
    "lat": 43.061298,
    "lng": 74.4776,
    "elevation_ft": 2058,
    "type": "airport"
  },
  {
    "iata": "BTC",
    "icao": "VCCB",
    "name": "Batticaloa International Airport",
    "city": "Batticaloa",
    "country": "LK",
    "continent": "AS",
    "lat": 7.705073,
    "lng": 81.677163,
    "elevation_ft": 20,
    "type": "airport"
  },
  {
    "iata": "BTH",
    "icao": "WIDD",
    "name": "Hang Nadim International Airport",
    "city": "Batam",
    "country": "ID",
    "continent": "AS",
    "lat": 1.12103,
    "lng": 104.119003,
    "elevation_ft": 126,
    "type": "airport"
  },
  {
    "iata": "BTI",
    "icao": "PABA",
    "name": "Barter Island Long Range Radar Station Airport",
    "city": "Barter Island",
    "country": "US",
    "continent": "NA",
    "lat": 70.134003,
    "lng": -143.582001,
    "elevation_ft": 2,
    "type": "airport"
  },
  {
    "iata": "BTJ",
    "icao": "WITT",
    "name": "Sultan Iskandar Muda International Airport",
    "city": "Banda Aceh",
    "country": "ID",
    "continent": "AS",
    "lat": 5.525087,
    "lng": 95.41997,
    "elevation_ft": 65,
    "type": "airport"
  },
  {
    "iata": "BTK",
    "icao": "UIBB",
    "name": "Bratsk Airport",
    "city": "Bratsk",
    "country": "RU",
    "continent": "AS",
    "lat": 56.3696,
    "lng": 101.701822,
    "elevation_ft": 1610,
    "type": "airport"
  },
  {
    "iata": "BTM",
    "icao": "KBTM",
    "name": "Bert Mooney Airport",
    "city": "Butte",
    "country": "US",
    "continent": "NA",
    "lat": 45.95479965209961,
    "lng": -112.49700164794922,
    "elevation_ft": 5550,
    "type": "airport"
  },
  {
    "iata": "BTR",
    "icao": "KBTR",
    "name": "Baton Rouge Metropolitan Airport",
    "city": "Baton Rouge",
    "country": "US",
    "continent": "NA",
    "lat": 30.533199,
    "lng": -91.149597,
    "elevation_ft": 70,
    "type": "airport"
  },
  {
    "iata": "BTS",
    "icao": "LZIB",
    "name": "M. R. Štefánik Airport",
    "city": "Bratislava",
    "country": "SK",
    "continent": "EU",
    "lat": 48.1702,
    "lng": 17.2127,
    "elevation_ft": 436,
    "type": "airport"
  },
  {
    "iata": "BTU",
    "icao": "WBGB",
    "name": "Bintulu Airport",
    "city": "Bintulu",
    "country": "MY",
    "continent": "AS",
    "lat": 3.12385010719,
    "lng": 113.019996643,
    "elevation_ft": 74,
    "type": "airport"
  },
  {
    "iata": "BTV",
    "icao": "KBTV",
    "name": "Patrick Leahy Burlington International Airport",
    "city": "Burlington",
    "country": "US",
    "continent": "NA",
    "lat": 44.471901,
    "lng": -73.153297,
    "elevation_ft": 335,
    "type": "airport"
  },
  {
    "iata": "BUA",
    "icao": "AYBK",
    "name": "Buka Airport",
    "city": "Buka Island",
    "country": "PG",
    "continent": "OC",
    "lat": -5.422299,
    "lng": 154.672698,
    "elevation_ft": 11,
    "type": "airport"
  },
  {
    "iata": "BUD",
    "icao": "LHBP",
    "name": "Budapest Liszt Ferenc International Airport",
    "city": "Budapest",
    "country": "HU",
    "continent": "EU",
    "lat": 47.43018,
    "lng": 19.262393,
    "elevation_ft": 495,
    "type": "airport"
  },
  {
    "iata": "BUF",
    "icao": "KBUF",
    "name": "Buffalo Niagara International Airport",
    "city": "Buffalo",
    "country": "US",
    "continent": "NA",
    "lat": 42.940498,
    "lng": -78.732201,
    "elevation_ft": 728,
    "type": "airport"
  },
  {
    "iata": "BUN",
    "icao": "SKBU",
    "name": "Gerardo Tobar López Airport",
    "city": "Buenaventura",
    "country": "CO",
    "continent": "SA",
    "lat": 3.81963,
    "lng": -76.9898,
    "elevation_ft": 48,
    "type": "airport"
  },