[
  {
    "iata": "FRA",
    "icao": "EDDF",
    "name": "Frankfurt Airport",
    "city": "Frankfurt",
    "country": "DE",
    "lat": 50.0379,
    "lng": 8.5622
  },
  {
    "iata": "MUC",
    "icao": "EDDM",
    "name": "Munich Airport",
    "city": "München",
    "country": "DE",
    "lat": 48.3538,
    "lng": 11.7861
  },
  {
    "iata": "BER",
    "icao": "EDDB",
    "name": "Berlin Brandenburg Airport",
    "city": "Berlin",
    "country": "DE",
    "lat": 52.3667,
    "lng": 13.5033
  },
  {
    "iata": "LHR",
    "icao": "EGLL",
    "name": "London Heathrow",
    "city": "London",
    "country": "GB",
    "lat": 51.47,
    "lng": -0.4543
  },
  {
    "iata": "CDG",
    "icao": "LFPG",
    "name": "Paris Charles de Gaulle",
    "city": "Paris",
    "country": "FR",
    "lat": 49.0097,
    "lng": 2.5479
  },
  {
    "iata": "JFK",
    "icao": "KJFK",
    "name": "John F. Kennedy International",
    "city": "New York",
    "country": "US",
    "lat": 40.6413,
    "lng": -73.7781
  },
  {
    "iata": "LAX",
    "icao": "KLAX",
    "name": "Los Angeles International",
    "city": "Los Angeles",
    "country": "US",
    "lat": 33.9416,
    "lng": -118.4085
  },
  {
    "iata": "HND",
    "icao": "RJTT",
    "name": "Tokyo Haneda",
    "city": "Tokyo",
    "country": "JP",
    "lat": 35.5494,
    "lng": 139.7798
  }
]
